site_id,name,account_id,status,size,installation_date,pto_date,address,city,state,zip,timezone,latitude,longitude,owner_id,fetch_id
3,Bird Precision,,,,7/18/08,,1 Spruce St.,Waltham,MA,2453,America/New_York,42.371,-71.2396,,
9,,,,,10/17/08,,126 Turnpike Rd.,Westborough,MA,1581,America/New_York,42.2845,-71.6069,,
23,126 Self Storage - 19kW,,,,2/12/09,,162 Pond Street,Ashland,MA,1721,America/New_York,42.2495,-71.4284,,
27,Flo's#2 012345678,,,,5/26/12,,45 Oaks Street_,,,1545,America/New_York,42.281815,-71.728883,,
37,Rehill Residence,,,5.07,1/10/09,,,Northborough,MA,1532,America/New_York,42.3195,-71.6412,,Rehill
38,Hamilton Residence,,,,4/23/09,,,Sudbury,MA,1776,America/New_York,42.3847,-71.4181,,
42,Honey Cell,,,198.72,3/17/09,,600 Bridgeport Ave.,Shelton,CT,6484,America/New_York,41.280708,-73.11837,,Honey
45,Wee Burn Country Club,,,85.5,2/25/09,,410 Hollow Tree Ridge Rd.,Darien,CT,6820,America/New_York,41.087771,-73.498957,,Wee
47,Boucher Residence - Worcester,,,5.32,2/3/09,,5 Orrison St.,Worcester,MA,1607,America/New_York,42.2321,-71.7919,,Boucher
51,Greenwich Premier Services,,,,6/15/10,,500 W. Putnam Ave.,Greenwich,CT,6830,America/New_York,41.517761,-72.75753,,Greenwich
71,Spencer Organ Company,,,,4/23/09,,38A Yetten Terrace,Waltham,MA,2453,America/New_York,42.3699,-71.2297,,
88,Davis Residence - Griswold,,,,5/17/09,,,Griswold,CT,6351,America/New_York,41.5961,-71.9283,,
113,Owl Power Company,,,,4/17/10,,,Danbury,CT,6810,America/New_York,41.3756,-73.4534,,
141,Ferreira Residence,,,5.16,8/14/09,,1131 Union Heights Rd,Hollister,CA,95023,America/Los_Angeles,36.831764,-121.426,,Ferreira
142,Suojanen Residence,,,,8/11/09,,,Medfield,MA,2052,America/New_York,42.1876,-71.3064,,
143,Augustine Residence,,,,8/12/09,,,Maynard,MA,1754,America/New_York,42.4249,-71.4596,,
144,Boover Residence,,,,8/7/09,,,Wocester,MA,1607,America/New_York,42.2321,-71.7919,,
145,Kjellberg Residence,,,4.31,8/7/09,,,South grafton,MA,1560,America/New_York,42.1744,-71.6733,,Kjellberg
146,Buffum Residence,,,,9/10/09,,,Dudley,MA,1571,America/New_York,42.0582,-71.9283,,
148,SolrenView test Site's,,,,11/2/10,,360 Merrimack Street1,Lawrence,MA,,America/New_York,42.4191,-71.0086,,
162,Parker Family,,,,9/8/09,,,Acton,MA,1720,America/New_York,42.4836,-71.4418,,
164,JB Moving,,,,9/14/09,,222 Selleck St,Stamford,CT,6902,America/New_York,41.060081,-73.545097,,
177,"Davis Residence - Lancaster, MA",,,,9/30/09,,,Lancaster,MA,1523,America/New_York,42.4851,-71.6792,,
183,Monnick Supply,,,,10/26/09,,759 Waverly St.,Framingham,MA,1702,America/New_York,42.272301,-71.429105,,Monnick
191,Lincoln Elementary School,,,98.01,12/8/09,,420 Myrtle,Canon city,CO,81212,America/Denver,38.432633,-105.23929,,Lincoln
195,Stage Stop Candy,,,32.76,2/18/10,,411 Main Street,Dennis port,MA,2639,America/New_York,41.6657,-70.131622,,Stage
197,Skyline Elementary School,,,98.01,12/2/09,,2855 N. 9th St.,Canon city,CO,81212,America/Denver,38.4677,-105.23891,,Skyline
199,Kennedy Residence - Rutland,,,,11/11/09,,,Rutland,MA,1543,America/New_York,42.3695,-71.9481,,
200,Dick Residence,,,,11/3/09,,,Worcester,MA,1602,America/New_York,42.2705,-71.8512,,
206,Lighthouse Masonry,,,44,10/28/09,,,New bedford,MA,2747,America/New_York,41.726449,-70.963845,,Lighthouse
207,Holiday Farm,,,,11/11/09,,,Berlin,MA,1503,America/New_York,42.361125,-71.628594,,
208,Lapine residence,,,,11/30/09,,,West brookfield,MA,,America/New_York,42.4072,-71.3824,,Lapine
222,Canon City Middle School System,,,50.49,1/6/10,,1215 main Street,Canon city,CO,81212,America/Denver,38.445087,-105.23146,,Canon
229,McKinley Elementary School,,,99.96,12/22/09,,1240 McKinley St.,Canon city,CO,81212,America/Denver,38.431502,-105.21424,,McKinley
238,Pierce Residence,,,,12/2/09,,,Concord,MA,1742,America/New_York,42.459915,-71.347799,,Pierce
239,Canon City High School,,,197.97,3/1/09,,1313 College Ave,Canon city,CO,81212,America/Denver,38.449802,-105.23292,,Canon
241,Harrison Middle School,,,98.01,1/11/10,,920 Feild Avenue,Canon city,CO,81212,America/Denver,38.460568,-105.25342,,Harrison
247,Fite Residence,,,5.04,4/1/10,,,Northborough,MA,1532,America/New_York,42.310129,-71.655451,,Fite
253,Canon City Bus Garage,,,10.8,12/11/09,,1030 S. 4st,Canon city,CO,81212,America/Denver,38.46055,-105.25359,,Canon
254,Washington Elementary School,,,99.96,1/6/10,,606 N. 9th St.,Canon city,CO,81212,America/Denver,38.477871,-105.36821,,Washington
270,Brandom Residence,,,4.44,9/17/12,,239 Old Littleton Road,Harvard,MA,1451,America/New_York,42.5164,-71.5475,,Brandom
273,Rykbost Residence,,,1.17,3/9/10,,,Hudson,MA,1749,America/New_York,42.39117,-71.567684,,Rykbost
321,Conigliaro Industries,,,,4/7/10,,701 Waverly Street,Framingham,MA,1702,America/New_York,42.273418,-71.426969,,
330,Canton Water Pollution Control Facility,,,,5/4/10,,50 Old River Rd.,Canton,CT,6019,America/New_York,41.818673,-72.922047,,
352,Site 149,,,,4/29/10,,,Windsor,CT,6095,America/New_York,41.851755,-72.643514,,
375,Grafton High School,,,,7/8/10,,24 Providence Rd.,Grafton,MA,1519,America/New_York,42.21112,-71.692303,,
379,Kaufman-Kraft House,,,6.9,7/15/10,,307 Brookline St.,Needham,MA,2492,America/New_York,42.286848,-71.22755,,
393,Rocky Ford - Washington Primary School,,,71.28,1/11/10,,709 S. 11th St.,Rocky ford,CO,81067,America/Denver,38.047023,-103.72032,,Rocky
394,Rocky Ford - Jefferson Middle School,,,,6/21/10,,901 S. 11th St.,Rocky ford,CO,81067,America/Denver,38.045826,-103.72039,,Rocky
396,Rocky Ford High School - AG Building,,,15.12,6/23/10,,100 W. Washington,Rocky ford,CO,81067,America/Denver,38.043964,-103.73298,,Rocky
397,Rocky Ford High School,,,98.01,6/11/10,,100 W. Washington,Rocky ford,CO,81067,America/Denver,38.043964,-103.73298,,Rocky
398,Rocky Ford High School - Bus Garage,,,,5/17/10,,100 W. Washington,Rocky ford,CO,81067,America/Denver,38.043964,-103.73298,,
409,Fix Residence,,,5.04,6/10/10,,,Marlborough,MA,1752,America/New_York,42.346806,-71.547991,,Fix
410,Haran-Costello Residence,,,5.04,6/9/10,,,Jefferson,MA,1522,America/New_York,42.3803486,-71.8864407,,Haran_Costello
411,Contaxes Residence,,,4.2,6/10/10,,,Lunenburg,MA,1462,America/New_York,42.594714,-71.726229,,Contaxes
412,Gag Residence,,,3.15,6/10/10,,,Roslindale,MA,2101,America/New_York,42.286625,-71.131369,,Gag
413,"Jefferson Residence, - Jefferson, MA",,,5.04,6/9/10,,,Jefferson,MA,1522,America/New_York,42.362235,-71.8862,,Jefferson
419,Simpson Residence,,,5.04,6/9/10,,,Westborough,MA,1582,America/New_York,42.283096,-71.600318,,Simpson
421,MSF/V,,,1.9,6/10/10,,,Holden,MA,1520,America/New_York,42.346587,-71.855617,,MSF_V
423,Herriott Residence,,,3.78,7/15/10,,,Westminster,MA,1473,America/New_York,42.579587,-71.890514,,Herriott
437,DCS#142,,,,9/23/10,,,Woodstock,CT,6281,America/New_York,41.954505,-71.981056,,
438,Arnold Residence - Harvard,,,8.82,7/2/10,,,Harvard,MA,1451,America/New_York,42.53494,-71.585165,,Arnold
444,Suburban Athletic Club,,,,7/1/10,,10 Roxanna St,Framingham,MA,1702,America/New_York,42.274484,-71.410842,,
446,Leitheiser Residence,,,3.87,9/20/10,,,,,,America/New_York,,,,Leitheiser
448,Savage Residence,,,3.6,8/20/10,,,Revere,MA,,America/New_York,42.4084,-71.012,,Savage
450,Sprayregen Residence,,,5.88,7/14/10,,,,,,America/New_York,,,,Sprayregen
474,,,,,7/30/10,,33 Pendleton Dr,Hebron,CT,6248,America/New_York,41.6581,-72.3612,,
482,DCS 164,,,4.92,7/28/10,,,Columbia,CT,6237,America/New_York,41.6956,-72.3074,,DCS
496,Nature's Classroom - East Lodge,,,15.12,8/13/10,,,Charlton,MA,1507,America/New_York,42.1425,-71.9757,,Nature_s
500,The Governor's Academy - Gym,,,32.34,11/1/10,,1 Elm St.,Byfield,MA,1922,America/New_York,42.7497,-70.8983,,The
518,Grey Residence,,,5.04,8/26/10,,,Sherborn,MA,1770,America/New_York,42.2583,-71.3769,,Grey
519,Bissett Residence,,,3.6,8/27/10,,,Northborough,MA,1532,America/New_York,42.3483,-71.6774,,Bissett
521,Prozeller Residence,,,5.04,12/10/10,,,Pepperell,MA,1463,America/New_York,42.6659,-71.5884,,Prozeller
522,Boucher Residence - Gardner,,,5.04,9/2/10,,,Gardner,MA,1440,America/New_York,42.5775,-71.9961,,Boucher
529,Barshak Residence,,,5.04,9/16/10,,,Bolton,MA,1740,America/New_York,42.4118,-71.5776,,Barshak
530,Noyes School,,,2.94,10/9/10,,280 Old Sudbury Road,Sudbury,MA,1776,America/New_York,42.3819,-71.4103,,Noyes
545,Chelmsford 3G - Crooked Spring Water Treatment,,,,4/6/11,,50 Doak Dr.,Chelmsford,MA,1824,America/New_York,42.5998,-71.3673,,
546,"National Grid - Everett, MA 3",,,,2/22/11,,,Everett,MA,2149,America/New_York,42.4117,-71.0724,,National
558,SED - Honey Hill Farms,,,,11/11/10,,89 Hayden Rowe St.,Hopkinton,MA,1748,America/New_York,42.2187,-71.5157,,SED
561,Falmouth Academy,,,76.59,11/22/10,,,Falmouth,MA,2540,America/New_York,41.5598,-70.624,,
564,Meichelbeck Residence,,,9.72,11/30/10,,,Grafton,MA,1568,America/New_York,42.22,-71.6445,,Meichelbeck
567,DCS 180,,,,9/30/10,,,Moodus,CT,6469,America/New_York,41.5089,-72.4436,,
569,DCS 201,,,,11/16/10,,,Mansfield,CT,6426,America/New_York,41.4848,-72.267,,
570,DCS 202,,,,10/7/10,,,Bristol,CT,6010,America/New_York,41.6751,-72.9224,,
571,DCS 191,,,,10/3/10,,,Lebanon,CT,6249,America/New_York,41.6418,-72.2127,,
574,DCS 198,,,,10/15/10,,,Salem,CT,6420,America/New_York,41.4945,-72.2601,,
576,DCS 200,,,,9/24/10,,,Salem,CT,6420,America/New_York,41.4945,-72.2601,,
585,Precise Packaging,,,112.32,8/1/11,,927 Currant Rd,Fall river,MA,2720,America/New_York,41.7406,-71.1073,,Precise
614,Boston Water and Sewer Commission (BWSC),,,,10/30/10,,924 Harrison Ave.,Boston,MA,2118,America/New_York,42.3584,-71.0598,,
630,Senie Residence,,,3.33,8/22/11,,,Bolton,MA,1740,America/New_York,42.4334,-71.6078,,Senie
631,DCS 205,,,,11/3/10,,,Lebanon,CT,6249,America/New_York,41.6418,-72.2127,,
632,DCS 211,,,,11/19/10,,,South woodstock,CT,6267,America/New_York,41.9379,-71.9595,,
637,Wright Hay Barn,,,,11/18/11,,,Ashbernham,MA,1430,America/New_York,42.6355,-71.9097,,
643,Old Colony Vocational School,,,,3/15/11,,476 North Ave,Rochester,MA,2770,America/New_York,41.7873,-70.8744,,
644,Fuhro Residence,,,2.88,11/19/10,,,Natick,MA,1760,America/New_York,42.2871,-71.3592,,Fuhro
645,Rose's Automotive,,,,9/12/11,,26 North Main St.,Sherborn,MA,1770,America/New_York,42.2468,-71.3687,,
647,Beale Residence,,,6.48,12/8/10,,,Harvard,MA,1415,America/New_York,42.5523,-71.5726,,Beale
655,Great Oak Middle School,,,76.05,12/16/10,,50 Great Oak Rd.,Oxford,CT,6478,America/New_York,41.4233,-73.1402,,Great
669,Hill Residence,,,5.18,4/19/11,,,Grafton,MA,1519,America/New_York,42.1993,-71.6792,,Hill
682,"National Grid - Everett, MA",,,594.44,2/22/11,,,Everett,MA,2149,America/New_York,42.4117,-71.0724,,National
694,Brownsberger Residence,,,4.62,1/7/11,,,Belmont,MA,,America/New_York,42.3959,-71.1787,,Brownsberger
695,Boston BioProducts,,,,12/21/10,,159 Chestnut St.,Ashland,MA,1721,America/New_York,42.2611,-71.4639,,
704,DCS 262,,,,10/19/10,,,Colchester,CT,6415,America/New_York,41.5757,-72.332,,
706,DCS 250,,,,1/13/11,,,East granby,CT,6026,America/New_York,41.9543,-72.3023,,
708,McHenry County Administration Building,,,,12/3/10,,2200 N. Seminary Ave.,Woodstock,IL,60098,America/Chicago,42.3147,-88.4487,,McHenry
715,"National Grid - Revere, MA",,,739.2,12/21/10,,24 Railroad Ave.,Revere,MA,2151,America/New_York,42.4191,-71.0086,,National
716,National Grid - Haverhill,,,1016.4,12/29/10,,89 Hilldale Ave.,Haverhill,MA,1832,America/New_York,42.7952,-71.0576,,National
726,Edna C. Stevens Elementary School,,,184.8,1/6/11,,25 Court Street,Cromwell,CT,6416,America/New_York,41.62,-72.6583,,Edna
744,Weiss - Aug,,,,7/19/11,,220 Merry Lane,East hanover,NJ,7936,America/New_York,40.8193,-74.3457,,
761,Hildreth Elementary School,,,,12/1/12,,27 Mass Ave,Harvard,MA,1451,America/New_York,42.4972,-71.5826,,
788,Santos Residence,,,5.04,4/19/11,,,Southbridge,MA,,America/New_York,42.0751,-72.0334,,Santos
791,Westborough Solar Farm,,,240.24,2/18/11,,113 Milk St,Westborough,MA,,America/New_York,42.2752,-71.6229,,Westborough
806,Planet Subaru,,,78.75,3/28/11,,596 Washington Street,Hanover,MA,2339,America/New_York,42.1223,-70.8251,,
812,"National Grid - Revere, MA 2",,,,12/21/10,,,Revere,MA,2151,America/New_York,42.4191,-71.0086,,National
820,Scofield Magnet School,,,,1/8/11,,641 Scofieldtown Road,Stamford,CT,6901,America/New_York,41.1404,-73.5564,,
843,Brooks School,,,80,3/29/11,,,North andover,MA,1845,America/New_York,42.6696,-71.0854,,Brooks
853,"National Grid - Everett, MA 2",,,,2/22/11,,,Everett,MA,2149,America/New_York,42.4117,-71.0724,,National
860,,,,40.32,4/13/11,,2940 Highway 21 S.,Rincon,GA,31326,America/New_York,32.296,-81.2354,,Effingham
862,Leblanc Residence - Ashburnham,,,9.4,4/26/11,,,Ashburnham,MA,1430,America/New_York,42.6682,-71.9283,,Leblanc
863,Wright Residence - Ashburnham,,,9.4,5/2/11,,,Ashburnham,MA,1430,America/New_York,42.6682,-71.9283,,Wright
864,Lewin-Berlin Residence,,,5.92,4/24/11,,,Acton,MA,1720,America/New_York,42.4836,-71.4418,,Lewin_Berlin
866,GE Sensing,,,,9/15/11,,1100 Technology Park Dr,Billerica,MA,1821,America/New_York,42.5465,-71.2518,,
867,Zglobicki Residence,,,,11/22/10,,,Rutland,MA,,America/New_York,42.3695,-71.9481,,Zglobicki
870,Shander-Reynolds,,,,4/22/11,,,Ashland,MA,,America/New_York,42.2611,-71.4639,,Shander_Reynolds
871,National Grid - Haverhill 2,,,1016.4,12/29/10,,,Haverhill,MA,1830,America/New_York,42.7762,-71.0773,,National
880,Cromwell Middle School,,,166.38,4/28/11,,6 Mann Memorial Dr.,Cromwell,CT,6416,America/New_York,41.6275,-72.6562,,Cromwell
895,National Grid - Haverhill 3,,,1016.4,12/29/10,,,Haverhill,MA,1830,America/New_York,42.7762,-71.0773,,National
918,Dedham High School,,,121.26,5/24/11,,140 Whiting Ave.,Dedham,MA,2026,America/New_York,42.2418,-71.1662,,Dedham
919,Precise Packaging Inc.,,,278.88,5/24/11,,1140 Airport Rd.,Fall river,MA,2720,America/New_York,41.7469,-71.1106,,
920,Clarke Distribution Corporation,,,460.8,8/5/11,,393 Fortune Blvd.,Milford,MA,1757,America/New_York,42.1398,-71.5162,,
935,Erb Residence,,,,6/6/11,,,Leominster,MA,1453,America/New_York,42.5251,-71.7598,,Erb
948,Saxonville Mill,,,500.9,6/16/11,,2 Central St.,Framingham,MA,10702,America/New_York,42.3251,-71.4001,,Saxonville
977,,,,57.33,7/18/11,,1 Wellington Rd.,Lincoln,RI,2865,America/New_York,41.911,-71.4418,,GEM
979,"JEM Electronics, Inc.",,,206.08,7/21/11,,23 National Dr.,Franklin,MA,2038,America/New_York,42.0834,-71.3967,,JEM
988,Hope School District,,,234,8/4/11,,,Santa barbara,CA,93101,America/Los_Angeles,34.4447,-119.754,,Hope
1011,Barnstable - WPCF,,,,8/12/11,,617 Bearses Way,Hyannis,MA,2601,America/New_York,41.701,-70.3063,,
1015,Mangeolle Residence,,,5.4,8/25/11,,,Acton,MA,1720,America/New_York,42.485,-71.4333,,Mangeolle
1017,Williams Residence,,,8.88,8/26/11,,,Harvard,MA,1451,America/New_York,42.5,-71.5833,,Williams
1018,Lussier Residence,,,9.99,8/29/11,,,Rutland,MA,1543,America/New_York,42.3694,-71.9486,,Lussier
1028,Hi-Gear,,,,8/26/11,,640 Crawford St.,Fitchburg,MA,1420,America/New_York,42.5561,-71.7531,,
1036,St Cyr Residence,,,4.73,9/7/11,,,Ashburham,MA,1430,America/New_York,42.6682,-71.9283,,St
1037,Tonge Residence,,,6.66,9/29/11,,,Harvard,MA,1451,America/New_York,42.5,-71.5833,,Tonge
1049,126 Self Storage - 481kW,,,480.7,8/16/11,,162 Pond Street,Ashland,MA,1721,America/New_York,42.2493,-71.4284,,126
1053,Hogan Residence,,,7.04,9/14/11,,,Northboro,MA,1532,America/New_York,42.3289,-71.6555,,Hogan
1068,Landeryou Residence,,,5.18,9/27/11,,,Harvard,MA,1451,America/New_York,42.5,-71.5833,,Landeryou
1069,Clark Residence - Harvard,,,3.33,9/27/11,,,Harvard,MA,1451,America/New_York,42.5,-71.5833,,Clark
1070,Tuttle Residence,,,2.59,9/27/11,,,Harvard,MA,1451,America/New_York,42.5,-71.5833,,Tuttle
1071,Aciukewicz Residence,,,3.7,9/27/11,,,Harvard,MA,1451,America/New_York,42.5,-71.5833,,Aciukewicz
1075,M Taylor Residence,,,5,9/29/11,,,Harvard,MA,1451,America/New_York,42.5,-71.5833,,M
1076,Basile Residence,,,7.77,9/29/11,,,Harvard,MA,1451,America/New_York,42.5,-71.5833,,Basile
1077,Marder PV,,,5.92,9/29/11,,224 Still River Rd.,Harvard,MA,1467,America/New_York,42.4923,-71.6173,,Marder
1093,Smyrna LLC / Rutherford County Airport,,,996.22,12/22/11,,278 Doug Warpoole Rd.,Smyrna,TN,37167,America/Chicago,35.9828,-86.5186,,Smyrna
1097,EMD Serono Research Center,,,10.08,10/12/11,,45A Middlesex Tpke.,Billerica,MA,1821,America/New_York,42.5281,-71.2572,,EMD
1103,Eddy Residence,,,9.24,10/13/11,,,Ashbernham,MA,1430,America/New_York,42.6355,-71.9097,,Eddy
1113,Arbors at Baltimore Crossroads,,,,10/17/11,,11550 Crossroads Circle,Baltimore,MD,21220,America/New_York,39.3515,-76.3753,,Arbors
1126,Victoria Riverside LLC,,,198,10/24/11,,10 Manomet St,New bedford,MA,2740,America/New_York,41.6382,-70.9368,,Victoria
1130,Upper Blackstone Water Pollution Abatement District,,,,8/22/12,,50 Route 20,Millbury,MA,1527,America/New_York,42.7015,-71.1249,,
1135,National Grid - Dorchester,,,,12/19/11,,220 Victory Rd.,Dorchester,MA,2122,America/New_York,42.2905,-71.0415,,National
1138,Chigas Residence,,,,11/1/11,,,Acton,MA,1720,America/New_York,42.485,-71.4333,,
1163,OMA Group,,,997.92,7/24/12,,157 Worcester Rd,Charlton,MA,1507,America/New_York,42.1447,-71.9653,,OMA
1168,Paradise Residence,,,5.4,11/17/11,,,Fitchburg,MA,1420,America/New_York,42.5834,-71.8023,,Paradise
1203,Ames Residence,,,,12/6/11,,,Harvard,MA,1451,America/New_York,42.5,-71.5833,,Ames
1209,Million Air,,,,8/3/11,,,Sandston,VA,23150,America/New_York,37.5077,-77.252,,Million
1213,Tuomala Residence,,,6.66,12/14/11,,,Fitchburg,MA,1420,America/New_York,42.5834,-71.8023,,Tuomala
1214,Snyder G Residence - Harvard,,,7.77,12/14/11,,,Harvard,MA,1451,America/New_York,42.5,-71.5833,,Snyder
1215,Durham Residence,,,7.77,12/14/11,,,Harvard,MA,1451,America/New_York,42.5,-71.5833,,Durham
1216,Taylor G Residence,,,3.7,12/14/11,,,Harvard,MA,1451,America/New_York,42.5,-71.5833,,Taylor
1217,Jackson P Residence,,,3.7,12/14/11,,,Harvard,MA,1451,America/New_York,42.5,-71.5833,,Jackson
1218,Poutasse Residence,,,5,12/14/11,,,Harvard,MA,1451,America/New_York,42.5,-71.5833,,Poutasse
1233,Chen Residence,,,5,12/20/11,,,Harvard,MA,1451,America/New_York,42.5,-71.5833,,Chen
1234,Ross Residence,,,6.11,12/21/11,,,Bolton,MA,1470,America/New_York,42.4773,-71.5865,,Ross
1235,CBIS Inc.,,,373.75,12/21/11,,29 Freight House Rd.,West brookfield,MA,1585,America/New_York,42.2293,-72.1455,,CBIS
1237,Colorado Solar Garden,,,,12/21/11,,,Colorado springs,CO,80911,America/Denver,38.982592,-104.73349,,
1238,100 Discovery Way,,,,1/3/12,,100 Discovery Way,Acton,MA,1742,America/New_York,42.4718,-71.44,,100
1239,Lancelotti,,,2.96,1/4/12,,,Harvard,MA,1451,America/New_York,42.5,-71.5833,,Lancelotti
1240,Ware-McCarthy Residence,,,6.66,1/4/12,,,Harvard,MA,1451,America/New_York,42.5,-71.5833,,Ware_McCarthy
1241,Kronauer Residence,,,6.66,1/4/12,,,Harvard,MA,1451,America/New_York,42.5,-71.5833,,Kronauer
1242,Leicher Residence,,,4.44,1/4/12,,,Harvard,MA,1451,America/New_York,42.5,-71.5833,,Leicher
1243,Hughes Residence,,,2.96,1/4/12,,,Harvard,MA,1451,America/New_York,42.5,-71.5833,,Hughes
1244,Gould's Plaza,,,42.55,1/4/12,,,Acton,MA,1451,America/New_York,42.5074,-71.5843,,Gould_s
1251,Creedon Co.,,,126.73,1/11/12,,"39 Jolma Road,",Worcester,MA,1601,America/New_York,42.2476,-71.7562,,Creedon
1281,Hermann Crystoff,,,3.33,1/23/12,,32 Madiagan Ln,Harvard,MA,1451,America/New_York,42.5,-71.5833,,Hermann
1282,Cutler Residence,,,6.11,1/23/12,,,Harvard,MA,1451,America/New_York,42.5,-71.5833,,Cutler
1283,Harasimowicz Residence,,,5.18,1/23/12,,,Harvard,MA,1451,America/New_York,42.5,-71.5833,,Harasimowicz
1301,Barrett Distribution,,,,2/6/12,,,Franklin,MA,2038,America/New_York,42.707,-71.1631,,
1312,Thornton Residence,,,6.66,2/14/12,,,Harvard,MA,1451,America/New_York,42.5,-71.5833,,Thornton
1313,Dangle-Gordon Residence,,,5.55,2/14/12,,,Harvard,MA,1451,America/New_York,42.5,-71.5833,,Dangle_Gordon
1314,"Nigzus, C Residence",,,3.89,2/14/12,,,Harvard,MA,1451,America/New_York,42.5,-71.5833,,Nigzus_
1315,LGA,,,255.64,2/21/12,,300 Whitney St.,Leominster,MA,1453,America/New_York,42.531,-71.752,,LGA
1325,Ray Residence - Sutton,,,5.18,8/5/11,,,Sutton,MA,1590,America/New_York,42.15,-71.7633,,Ray
1334,Mimosa,,,,2/1/13,,2km Este De La Fanal,Rincon de salas,GRECIA,,America/Chicago,10.02893,-84.329665,,
1347,Winnco,,,624.68,3/20/12,,2 Winnco Dr.,San antonio,TX,78218,America/Chicago,29.5481,-98.3633,,Winnco
1353,Thurlow Residence,,,3.7,3/22/12,,,Spencer,MA,1562,America/New_York,42.244,-71.9923,,Thurlow
1356,Alstom Power 56.16,,,,3/26/12,,1119 Riverfront Parkway,Chattanooga,TN,37402,America/New_York,35.0485,-85.3252,,
1369,Quarles Residence,,,2.59,4/6/12,,,Harvard,MA,1451,America/New_York,42.5,-71.5833,,Quarles
1376,Besse Residence,,,5.7,4/20/12,,,Harvard,MA,1451,America/New_York,42.5,-71.5833,,Besse
1377,Turner Residence,,,5.18,8/22/12,,,Harvard,MA,1451,America/New_York,42.5,-71.5833,,Turner
1378,Broadbent Residence,,,4.56,5/15/13,,,Harvard,MA,1451,America/New_York,42.5,-71.5833,,Broadbent
1379,Buhner Residence,,,6.84,7/17/12,,,Harvard,MA,1451,America/New_York,42.5,-71.5833,,Buhner
1380,CWM / TH,,,9.99,6/15/12,,,Harvard,MA,1451,America/New_York,42.5,-71.5833,,CWM
1381,McAlpine Residence,,,4.56,4/25/12,,,Harvard,MA,1451,America/New_York,42.5,-71.5833,,McAlpine
1382,Milford Residence,,,3.42,5/7/12,,,Harvard,MA,1451,America/New_York,42.5,-71.5833,,Milford
1383,Colarossi Residence,,,9.5,8/3/12,,,Stow,MA,1775,America/New_York,42.5,-71.5833,,Colarossi
1384,Poledo Residence,,,,6/29/12,,,Harvard,MA,1451,America/New_York,42.5,-71.5833,,Poledo
1385,Warner Residence,,,3.42,7/25/12,,,Harvard,MA,1451,America/New_York,42.5,-71.5833,,Warner
1398,Lee Residence,,,2.59,4/23/12,,,Harvard,MA,1451,America/New_York,42.5,-71.5833,,Lee
1406,Acorn Animal Hospital,,,19.8,5/8/12,,,Franklin,MA,2038,America/New_York,42.0834,-71.3967,,Acorn
1439,Spector Textile (10 Embankment),,,370.5,6/6/12,,31 Water St.,Lawrence,MA,1841,America/New_York,42.7069,-71.1654,,Spector
1443,Minar,,,4.18,6/8/12,,,Harvard,MA,1451,America/New_York,42.5,-71.5833,,Minar
1444,15 Union Street,,,588.82,3/21/12,,15 Union St.,Lawrence,MA,1840,America/New_York,42.7076694,-71.153043,,15
1459,Noble Residence,,,4.44,6/19/12,,,Harvard,MA,1451,America/New_York,42.5,-71.5833,,Noble
1466,Streich Residence,,,,7/12/12,,73 Wetherbee Rd.,Waltham,MA,2453,America/New_York,42.3697,-71.2642,,
1471,Hearne Residence,,,,7/24/12,,885 New London Road,Newark,DE,19711,America/New_York,39.7131,-75.7828,,
1479,17 Shepard Street,,,,8/11/12,,17 Shepard St.,Lawrence,MA,1843,America/New_York,42.714,-71.1656,,17
1509,Degrand Residence,,,6.66,7/25/12,,,Grafton,MA,1519,America/New_York,42.1993,-71.6792,,Degrand
1535,Dean Residence,,,6.84,8/3/12,,,Harvard,MA,1451,America/New_York,42.5,-71.5833,,Dean
1541,Olejarz,,,,8/6/12,,,Harvard,MA,1467,America/New_York,42.4923,-71.6173,,Olejarz
1546,Nigzus-Triantaris Residence,,,4.56,8/7/12,,,Harvard,MA,1451,America/New_York,42.5,-71.5833,,Nigzus_Triantaris
1552,Dyer Residence,,,4.07,8/8/12,,,Harvard,MA,1451,America/New_York,42.5,-71.5833,,Dyer
1553,O'Shea,,,6.46,8/8/12,,357 Old Littleton Road,Harvard,MA,1467,America/New_York,42.5303,-71.5394,,O_Shea
1556,Drumheller - Shop House,,,,8/30/12,,600 E. Glenn Rd.,Princeton,CA,95970,America/Los_Angeles,42.714,-71.1656,,
1557,Drumheller - Shop Pump,,,,8/30/12,,600 E. Glenn Rd.,Princeton,CA,95970,America/Los_Angeles,42.714,-71.1656,,
1562,Saw-Tech / JKM Industries,,,,5/13/14,,11 Glenn St.,Lawrence,MA,1843,America/New_York,42.6835799,-71.1774819,,
1563,United Salvage (Framingham Salvage Co.),,,800.03,11/12/12,,721 Waverly St.,Framingham,MA,1702,America/New_York,42.279263,-71.416172,,United
1564,Borges - Hospital,,,,12/8/14,,8350 Brady Rd.,Manteca,CA,95337,America/Los_Angeles,42.707035,-71.163114,,Borges
1576,Chalifoux Residence,,,3.04,9/4/12,,,Harvard,MA,,America/New_York,42.5,-71.5833,,Chalifoux
1603,Willard Elementary School,,,48.4,9/24/12,,185 Powder Mill Rd.,Concord,MA,1742,America/New_York,42.4603,-71.3494,,Willard
1606,Weiss Residence,,,6.84,9/25/12,,,Harvard,MA,1451,America/New_York,42.5,-71.5833,,Weiss
1609,MLH 2,,,,9/28/12,,2650 N.E. 53rd Ave.,Gainesville,FL,32609,America/New_York,29.6516,-82.3248,,
1617,S-DLE Sun Farm,,,1.88,10/17/12,,10900 Euclid Ave,Cleveland,OH,44106,America/New_York,41.5073,-81.607,,S_DLE
1623,MLH 1,,,,10/5/12,,2650 N.E. 53rd Ave.,Gainesville,FL,32609,America/New_York,29.6516,-82.3248,,MLH
1630,Southard Residence,,,5.32,10/17/12,,,Tewksbury,MA,1876,America/New_York,42.3762,-71.1158,,Southard
1635,Haines Residence,,,8.64,10/1/12,,,Ashby,MA,,America/New_York,42.6778,-71.8208,,Haines
1636,Liu Residence - Acton,,,7.5,10/26/12,,,Acton,MA,,America/New_York,42.485,-71.4333,,Liu
1643,Menin Residence,,,5.76,10/24/12,,,Sterling,MA,,America/New_York,42.4374,-71.7606,,Menin
1644,Ritter Residence,,,,10/24/12,,,Bolton,MA,,America/New_York,42.4334,-71.6078,,Ritter
1661,Hoffman Residence,,,5.7,12/4/12,,,Harvard,MA,1451,America/New_York,42.5,-71.5833,,Hoffman
1662,Ed Dufresne,,,5,11/28/12,,,Lunenburg,MA,1462,America/New_York,42.5945,-71.7245,,Ed
1663,Gutfreund Residence,,,5,11/9/12,,,Acton,MA,1720,America/New_York,42.485,-71.4333,,Gutfreund
1664,Nickerson Residence,,,9.99,11/9/12,,,Harvard,MA,1451,America/New_York,42.5,-71.5833,,Nickerson
1665,Kleinschmidt Residence,,,3.92,11/9/12,,,Acton,MA,1720,America/New_York,42.485,-71.4333,,Kleinschmidt
1683,Fay Residence,,,5.13,11/20/12,,,Harvard,MA,1451,America/New_York,42.5,-71.5833,,Fay
1687,Bratko Residence,,,,11/15/12,,,Hubbardston,MA,1452,America/New_York,42.4737,-72.0062,,
1700,Teradyne NR,,,639.27,11/21/12,,500-700 River Park Drive,North reading,MA,1889,America/New_York,42.53823,-71.1035,,Teradyne
1701,Teradyne Building 600,,,197.95,11/21/12,,600 River Park Dr.,North reading,MA,1889,America/New_York,42.5556,-71.1345,,Teradyne
1702,Teradyne Building 700,,,210.93,11/21/12,,700 River Park Dr.,North reading,MA,1889,America/New_York,42.5569,-71.1366,,Teradyne
1703,Teradyne Building 500,,,230.4,11/21/12,,500 River Park Dr.,North reading,MA,1889,America/New_York,42.555,-71.1366,,Teradyne
1706,O'Sullivan Residence,,,9.25,12/14/12,,,Acton,MA,1720,America/New_York,42.485,-71.4333,,O_Sullivan
1728,Cady Residence,,,,12/14/12,,,Shirley,MA,1464,America/New_York,42.5437,-71.6495,,
1732,126 Grove Solar LLC,,,,7/1/13,,126 Grove St.,Franklin,MA,2038,America/New_York,42.707,-71.1631,,
1740,Prime Shine Carwash - Manteca,,,75.6,8/4/16,,,Manteca,CA,95337,America/Los_Angeles,42.707,-71.1631,,Prime
1745,Buck Brothers,,,76.44,10/3/16,,100 Riverlin St.,Millbury,MA,1527,America/New_York,42.707,-71.1631,,Buck
1748,Giombetti Realty Trust,,,29.4,1/18/13,,401 South St.,Marlborough,MA,1752,America/New_York,42.707,-71.1631,,Giombetti
1751,Cornerbrook Hillview,,,214.87,11/26/12,,11 Commercial Way,Milford,MA,1757,America/New_York,42.1405,-71.492,,Cornerbrook
1752,Cornerbrook Recall,,,76.44,1/12/13,,12 Commercial Way,Milford,MA,1757,America/New_York,42.1405,-71.492,,Cornerbrook
1753,O'Connell 259,,,15.44,12/27/12,,269 Brooks St.,Worcester,MA,1606,America/New_York,42.3228,-71.8002,,O_Connell
1754,O'Connell 261,,,22.05,12/27/12,,261 Brooks St.,Worcester,MA,1606,America/New_York,42.3221,-71.8,,O_Connell
1755,O'Connell Fire Protection 255,,,15.44,12/27/12,,255 Brooks St.,Worcester,MA,1606,America/New_York,42.322,-71.8,,O_Connell
1757,,,,,11/10/12,,4 Latti Farm Rd.,Millbury,MA,1527,America/New_York,42.2183,-71.7741,,Discover
1758,Four H Realty LLC,,,54.15,1/17/13,,51 Pullman St.,Worcester,MA,1606,America/New_York,42.3233,-71.799,,
1759,Flint Corp.,,,82.81,12/28/12,,10 Fortune Dr.,Billerica,MA,1821,America/New_York,42.5285,-71.2622,,Flint
1764,Harlow 2 Sunset,,,,1/3/13,,2 Sunset Road,Kingston,MA,2364,America/New_York,41.9933,-70.7284,,
1778,Petersen Residence,,,5,,,,Acton,MA,1720,America/New_York,42.485,-71.4333,,Petersen
1779,Donaldson Residence,,,5.13,3/30/13,,,Harvard,MA,1451,America/New_York,42.5,-71.5833,,Donaldson
1780,Rondeau Residence,,,6.08,6/24/13,,,Berlin,MA,1503,America/New_York,42.3812,-71.637,,Rondeau
1781,Harte Residence,,,7.98,1/9/13,,,Harvard,MA,1451,America/New_York,42.5,-71.5833,,Harte
1793,Toshiba - Devens,,,,1/15/13,,139 Walker Rd.,Shirley,MA,1464,America/New_York,42.536,-71.6139,,
1797,Toshiba - Agawam Landfill,,,,1/23/13,,365 Main St.,Agawam,MA,1001,America/New_York,42.0637,-72.6269,,
1799,Toshiba - Agawam Route 57,,,,1/23/13,,912 Shoemaker Lane,Agawam,MA,1030,America/New_York,42.6875,-71.1627,,
1819,DeValentine,,,,10/13/12,,2632 Kempton Rd.,Rio oso,CA,95674,America/Los_Angeles,38.9786,-121.5074,,
1821,Merberg Residence,,,6,1/22/13,,,Acton,MA,1720,America/New_York,42.485,-71.4333,,Merberg
1824,Drumheller Dryers - 40 HP,,,,1/31/13,,,Colusa,CA,95932,America/Los_Angeles,39.2143,-122.0094,,
1826,Drumheller Dryers - 75 hp,,,,1/26/13,,,Colusa,CA,95932,America/Los_Angeles,39.2143,-122.0094,,
1830,Feil Residence,,,6.27,2/4/13,,,Hudson,MA,1749,America/New_York,42.3918,-71.5662,,Feil
1833,,,,5,2/5/13,,,Acton,MA,1720,America/New_York,42.485,-71.4333,,K
1836,Toshiba - Holyoke,,,,11/18/12,,,Holyoke,MA,1040,America/New_York,42.2043,-72.6162,,
1850,Robichaud Residence,,,8.25,2/12/13,,,Marlborough,MA,1752,America/New_York,42.3459,-71.5523,,Robichaud
1877,SSG 74 Otis Street,,,82,2/20/13,,74 Otis St.,Westborough,MA,1581,America/New_York,42.2695,-71.6162,,SSG
1878,St. Catherine's School I,,,50,2/28/13,,6001 Grove Ave.,Richmond,VA,23226,America/New_York,37.5714,-77.5214,,St_
1881,Kerpelman Residence,,,5,2/21/13,,,Acton,MA,1720,America/New_York,42.4851,-71.4328,,Kerpelman
1892,Frankel Residence - Acton,,,4.5,2/26/13,,,Acton,MA,1720,America/New_York,42.4851,-71.4328,,Frankel
1915,Shappy Residence,,,30.4,3/13/13,,,Harvard,MA,,America/New_York,42.5,-71.5833,,Shappy
1924,SEP - CET,,,,3/21/13,,83 Warwick St.,Springfield,MA,1104,America/New_York,42.1015,-72.5898,,SEP
1927,Pyne Sand and Stone - Office,,,,3/28/13,,1 Lackey Dam Rd.,Douglass,MA,1516,America/New_York,42.707,-71.1631,,Pyne
1928,Easthampton High School,,,114.24,4/5/13,,70 Williston St.,Easthampton,MA,1027,America/New_York,42.2601,-72.671,,Easthampton
1937,Boston Properties - Test Site,,,,12/21/12,,,Boston,MA,,America/New_York,42.3584,-71.0598,,
1944,"Helix Electric, Inc.",,,,4/1/13,,6795 Flanders Dr.,San diego,CA,92121,America/Los_Angeles,32.8981,-117.2029,,Helix
1964,New Horizons Solar,,,123.84,4/18/13,,31101 Edward Ave,Madison heights,MI,48071,America/New_York,42.5213,-83.1023,,New
1982,Gois Solar One,,,993.08,4/18/13,,30 Sewell St.,Ashland,MA,1721,America/New_York,42.2471,-71.4238,,Gois
1988,Grafton Water District (Kearsarge),,,,10/3/13,,21 Follette St.,Grafton,MA,1519,America/New_York,42.707,-71.1631,,
1990,Mikkola Residence,,,4.41,4/19/13,,,Acton,MA,,America/New_York,42.485,-71.4333,,Mikkola
1991,Miles Residence,,,0.58,4/19/13,,,Acton,MA,,America/New_York,42.485,-71.4333,,Miles
1992,Ricci Residence,,,4.41,4/19/13,,,Shirley,MA,,America/New_York,42.5437,-71.6495,,Ricci
1993,Witherell Residence,,,6.63,4/19/13,,,Shirley,MA,,America/New_York,42.5437,-71.6495,,Witherell
1994,Colburn/Mirkovic Residence,,,4.5,4/19/13,,,Shirley,MA,,America/New_York,42.5437,-71.6495,,Colburn_Mirkovic
1995,Venti Residence,,,4.66,4/19/13,,,Shirley,MA,,America/New_York,42.5437,-71.6495,,Venti
2002,,,,534,5/13/13,,316 New Boston St.,Woburn,MA,1801,America/New_York,42.5222,-71.1488,,New
2007,Farmingdale State College,,,94.08,3/1/13,,2350 Broadhollow Road,Farmingdale,NY,11735,America/New_York,42.707,-71.1631,,Farmingdale
2010,Valley View School,,,181.44,7/29/13,,1665 Blackstone Blvd.,El dorado hills,CA,95762,America/Los_Angeles,42.707,-71.1631,,Valley
2014,American Plumbing and Heating,,,217.14,5/2/13,,1000 Cordwainer Dr.,Norwell,MA,2061,America/New_York,42.165,-70.8849,,American
2015,SED - EM Duggan,,,240.5,5/2/13,,142 Will Dr.,Canton,MA,2021,America/New_York,42.1428,-71.1225,,SED
2020,Borges - Dairy,,,,12/8/14,,8350 Brady Rd.,Manteca,CA,95337,America/Los_Angeles,42.707,-71.1631,,Borges
2026,SEP - NuPath,,,73.26,5/7/13,,147 New Boston St.,Woburn,MA,1801,America/New_York,42.5081,-71.1438,,SEP
2030,SSG 45 South Street - Phase 1,,,221,5/8/13,,45 South St.,Hopkinton,MA,1748,America/New_York,42.2097,-71.5467,,SSG
2033,Bradley Residence,,,3.92,5/13/13,,,Acton,MA,,America/New_York,42.485,-71.4333,,Bradley
2034,Bolte/Bein Residence,,,3.92,,,,Acton,MA,,America/New_York,42.485,-71.4333,,Bolte_Bein
2035,Hooley Residence,,,5.39,5/13/13,,,Acton,MA,,America/New_York,42.485,-71.4333,,Hooley
2036,Pumphrey/Treister Residence,,,10.29,6/3/13,,,Acton,MA,,America/New_York,42.485,-71.4333,,Pumphrey_Treister
2037,Kramer Residence,,,6.54,4/30/13,,,Concord,MA,,America/New_York,42.4603,-71.3494,,Kramer
2039,Riverbank Lofts LLC,,,259.6,6/3/13,,200 Riverside Ave.,New bedford,MA,2740,America/New_York,41.6673,-70.9204,,Riverbank
2047,Hunt Farm,,,,9/6/13,,249 Daniel Shays Hwy.,Orange,MA,1364,America/New_York,42.707,-71.1631,,
2053,Adams Farm,,,,10/10/13,,854 Bearsden Rd.,Athol,MA,1331,America/New_York,42.707,-71.1631,,
2061,202 High Street,,,,9/4/13,,202 High St.,Gardner,MA,1440,America/New_York,42.707,-71.1631,,
2062,DeChillo Residence,,,5.57,6/12/13,,7 Rockland St.,Swampscott,MA,1907,America/New_York,42.4687,-70.915,,
2063,Fener Residence,,,,6/7/13,,40 Tanglewood Rd.,Needham,MA,2494,America/New_York,42.2896,-71.2422,,
2070,140 Shrewsbury Street Realty Trust,,,60,12/18/12,,140 Shrewsbury St.,Boylston,MA,1505,America/New_York,42.3344,-71.7353,,140
2073,Ainor Signs Inc.,,,50.4,8/6/16,,5443 Stationers Way,Sacramento,CA,95842,America/Los_Angeles,42.707,-71.1631,,Ainor
2086,Franklin 1,,,,11/20/13,,929 Upper Union St.,Franklin,MA,2038,America/New_York,42.707,-71.1631,,
2108,SolrenView test Site 2,,,,11/2/10,,,,,,America/New_York,,,,
2115,Fite Residence - Berlin,,,9.81,6/12/13,,,Berlin,MA,,America/New_York,42.3811,-71.6375,,Fite
2124,Aubuchon Hardware,,,,6/14/13,,95 Aubuchon Dr.,Westminster,MA,1473,America/New_York,42.5515,-71.9177,,
2126,JFW - Carneros Hills,,,,4/22/13,,27000 Ramal Rd,Sonoma,CA,95476,America/Los_Angeles,38.2252,-122.3788,,
2134,Fairview Farms,,,,1/1/15,,345 Long Plain Rd.,Whately,MA,1373,America/New_York,42.707,-71.1631,,
2149,CONRAC - Logan Airport,,,,7/22/13,,20 Porter St.,Boston,MA,2128,America/New_York,42.707,-71.1631,,
2151,Boston North Technology Park,,,325,8/6/13,,110 Haverhill Rd,Amesbury,MA,1903,America/New_York,42.707,-71.1631,,Boston
2152,"Giguere Gymnastics, Inc",,,74.75,7/2/13,,148 Main St.,Cherry valley (leicester),MA,1524,America/New_York,42.2416,-71.8485,,Giguere
2153,Pyne Sand and Stone - Garage,,,,6/27/13,,1 Lackey Dam Rd.,Douglas,MA,1516,America/New_York,42.0881,-71.6955,,Pyne
2164,,,,,7/1/13,,257 Milford St.,Upton,MA,1568,America/New_York,42.1553,-71.5717,,
2170,Hearn Residence,,,,6/25/13,,,Acton,MA,,America/New_York,42.707,-71.1631,,Hearn
2175,Hubbardston Solar,,,2540.12,11/26/13,,95 Williamsville Rd.,Hubbardston,MA,1452,America/New_York,42.707,-71.1631,,Hubbardston
2177,Mattheis Residence,,,8.5,7/10/13,,,Marlborough,MA,,America/New_York,42.3459,-71.5523,,Mattheis
2178,Dana Residence,,,6.54,7/10/13,,,Westford,MA,,America/New_York,42.5793,-71.4378,,Dana
2191,Mansfield Auto Care,,,11.76,7/23/13,,27 Angell St.,Mansfield,MA,2048,America/New_York,42.707,-71.1631,,Mansfield
2197,SED - Honey Hill Farms II,,,48.38,7/31/13,,89 Hayden Rowe St.,Hopkinton,MA,1748,America/New_York,42.2187,-71.5157,,SED
2199,Service Truck Tire,,,324.87,8/2/13,,8 Latti Farm Rd.,Millbury,MA,1527,America/New_York,42.2165,-71.7749,,Service
2203,Westlake - 3043,,,168.48,7/23/16,,3043 Townsgate Rd.,Thousand oaks,CA,91361,America/Los_Angeles,42.707,-71.1631,,Westlake
2227,Uxbridge Solar LLC 1,,,1209.6,8/15/13,,500 W. Hartford Ave.,Uxbridge,MA,1569,America/New_York,42.0837,-71.6701,,Uxbridge
2228,Uxbridge Solar LLC 2,,,1209.6,8/15/13,,500 Hartford Avenue West,Uxbridge,MA,1569,America/New_York,42.0837,-71.6701,,Uxbridge
2229,Uxbridge Solar LLC 3,,,1209.6,8/15/13,,500 W. Hartford Ave.,Uxbridge,MA,1569,America/New_York,42.0837,-71.6701,,Uxbridge
2230,Bastarache/Nicholson Residence,,,7.85,8/6/13,,,Ashby,MA,1431,America/New_York,42.6773,-71.8187,,Bastarache_Nicholson
2235,B407,,,0.93,8/22/13,,43 Braod St. Suite B407,Hudson,MA,1749,America/New_York,42.3888,-71.5644,,
2236,Uxbridge Solar LLC,,,3628.8,8/15/13,,500 Hartford Avenue West,Uxbridge,MA,1569,America/New_York,42.0794,-71.678,,
2247,Woodrise Realty Trust,,,20.16,8/30/13,,27 Halmstad St.,Worcester,MA,1607,America/New_York,42.2302,-71.7962,,
2250,Mehserle Residence,,,4.5,9/23/18,,,Shirley,MA,,America/New_York,42.5437,-71.6495,,Mehserle
2253,Whatta View Realty Trust,,,,9/1/13,,,Grafton,MA,1519,America/New_York,42.1993,-71.6792,,Whatta
2261,SIESA,,,,9/1/13,,300m Este y 500m Norte del Restaurante Bacchus,Santa ana,SJ,10901,America/Chicago,9.9338513,-84.1785198,,SIESA
2263,Cornerbrook #3,,,,9/20/13,,13 Commercial Way,Milford,MA,1757,America/New_York,42.1405,-71.492,,Cornerbrook
2273,Frey Residence,,,11.04,9/11/13,,,Bolton,MA,1740,America/New_York,42.4352987,-71.6080009,,Frey
2286,SED - Michael Carter Lisnow Respite Center,,,,9/25/13,,112 Main St.,Hopkinton,MA,1748,America/New_York,42.2260845,-71.5285787,,SED
2289,Worden Residence,,,,12/18/12,,84 Academy Rd,North andover,MA,1845,America/New_York,42.6871265,-71.1140399,,Worden
2318,Suscavage Residence,,,7.35,10/8/13,,,Shirley,MA,1464,America/New_York,42.5721628,-71.6317359,,Suscavage
2319,Rivers Residence,,,6.9,9/25/13,,,Boxford,MA,1921,America/New_York,42.6763235,-71.014118,,Rivers
2330,HBS TATA Building,,,,12/18/13,,Harvard Way,Boston,MA,2138,America/New_York,42.366723,-71.1226826,,
2332,JETRO-PON 2484,,,902.52,10/1/13,,100 Oak Point Ave,Bronx,NY,10474,America/New_York,40.808366,-73.8980958,,JETRO_PON
2333,JETRO - PON 2156,,,654,10/1/13,,100 Oak Point Ave,Bronx,NY,10474,America/New_York,40.808366,-73.8980958,,JETRO
2335,Fernandes Residence,,,9.66,10/5/13,,,Westford,MA,,America/New_York,42.5775266,-71.4635159,,Fernandes
2354,Gold Key Storage,,,,8/5/16,,4040 Stage Ct.,Placerville,CA,95667,America/Los_Angeles,38.7009182,-120.8185321,,Gold
2356,Seidman Cancer Center Solar Array,,,,12/3/13,,11100 Euclid Ave.,Cleveland,OH,44106,America/New_York,41.5062405,-81.6053771,,Seidman
2360,Eastern Bank,,,,8/1/14,,195 Market St.,Lynn,MA,1901,America/New_York,42.460979,-70.9475035,,
2371,Harwood Engineering,,,56.05,11/7/13,,455 South St.,Walpole,MA,2081,America/New_York,42.147085,-71.251783,,
2379,SEP Pingree School - Athletic,,,,4/12/14,,537 Highland St.,South hamilton,MA,1982,America/New_York,42.6385834,-70.8810259,,SEP
2382,SEP Faith Community Church of Hopkinton (FCCH),,,,12/7/14,,146E Main St.,Hopkinton,MA,1748,America/New_York,42.2253402,-71.5292878,,SEP
2394,Franklin Phase 2 (aka KSFIVE),,,,12/27/13,,929 Upper Union Street,Franklin,MA,2093,America/New_York,42.0497377,-71.3943174,,
2419,Brown Residence,,,6.21,12/5/13,,,Westport,MA,2420,America/New_York,41.5700183,-71.0735476,,Brown
2426,Zhang/Hass Residence,,,,12/27/13,,,Acton,MA,1720,America/New_York,42.4836453,-71.4418101,,Zhang_Hass
2428,Green Mountain College,,,,12/5/13,,1 Brannan Circle,Poultney,VT,5764,America/New_York,43.51655,-73.24021,,
2435,Sparrow Enterprises,,,,12/12/13,,98R Condor Street,East boston,MA,2228,America/New_York,42.3835288,-71.0363122,,Sparrow
2437,Long Subaru,,,72.6,4/21/15,,9 Sutton Rd.,Webster,MA,1570,America/New_York,42.062725,-71.8579669,,Long
2458,Stonehill College Groundmount,,,,7/10/14,,405 Washington St.,Easton,MA,2334,America/New_York,42.059104,-71.089157,,
2460,,,,,12/18/13,,111 Randolph Rd.,Worcester,MA,1606,America/New_York,42.2981144,-71.7980429,,
2463,South Street Solar LLC 3,,,,12/6/13,,South St.,Andover,MA,1810,America/New_York,42.6017155,-71.1798104,,
2464,South Street Solar LLC 2,,,,12/19/13,,South St.,Andover,MA,1810,America/New_York,42.6017155,-71.1798104,,
2465,South Street Solar LLC 1,,,,1/6/14,,South St.,Andover,MA,1810,America/New_York,42.6017155,-71.1798104,,
2473,,,,1259.06,,,,,,,,,,,Fall
2474,,,,,,,,,,,,,,,Fall
2475,,,,,,,,,,,,,,,Fall
2476,,,,126.56,,,,,,,,,,,Fall
2481,Dampney Everett,,,,12/23/13,,85 Paris St.,Everett,MA,2149,America/New_York,42.4014797,-71.0560446,,
2482,9 North Main Street LLC,,,,11/11/13,,9 N. Main St.,Bellingham,MA,2019,America/New_York,42.088011,-71.474661,,
2483,PWRR Southbridge System 2,,,,12/23/13,,75 Hammond St.,Worcester,MA,1610,America/New_York,42.2517985,-71.8102296,,
2484,PWRR Southbridge System 1,,,,1/7/14,,75 Hammond St.,Worcester,MA,1610,America/New_York,42.2517985,-71.8102296,,
2485,SSG 45 South Street - Phase 2,,,97.5,12/23/13,,45 South St.,Hopkinton,MA,1748,America/New_York,42.209715,-71.54668,,SSG
2494,"FUJIFILM Recording Media U.S.A., Inc.",,,570.35,12/20/13,,45 Crosby Drive,Bedford,MA,,America/New_York,42.49065,-71.276169,,FUJIFILM
2496,Ancom Custom Cabinets,,,,12/26/13,,22 Bryan Way,Ayer,MA,1432,America/New_York,42.5666055,-71.5326427,,
2499,Clean Energy Service,,,259.44,12/6/13,,358 Faunce Corner Rd.,N. dartmouth,MA,2747,America/New_York,41.6629124,-70.991255,,Clean
2500,Quincy Heights - 231-233 Quincy St.,,,,12/9/14,,231 - 233 Quincy St.,Boston,MA,2121,America/New_York,42.31226,-71.0736499,,
2501,Rockland Landfill,,,,12/27/13,,800 Beach Street,Rockland,MA,2370,America/New_York,42.13,-70.91,,
2503,PWRR Forgotten Yard,,,,2/4/14,,1 South Gate Street - Pole #1,Worcester,MA,1610,America/New_York,42.2485975,-71.8103981,,
2511,Iowa State Fairgrounds Varied Industries Building,,,62.99,1/5/14,,3000 East Grand Ave.,Des moines,IA,50317,America/Chicago,41.5951983,-93.5509306,,Iowa
2516,7 Central Street,,,,11/30/13,,7 Central St.,Arlington,MA,2476,America/New_York,42.4166246,-71.1562238,,
2517,Fall River Innovation LLC,,,,1/8/14,,Innovation Way,Fall river,MA,2720,America/New_York,41.7558215,-71.0962907,,
2520,Old Time Sports 2,,,,1/23/14,,10 Fanaras Dr.,Salisbury,MA,1952,America/New_York,42.856385,-70.887891,,Old
2529,Solana Ranch Elementary,,,,2/25/14,,13605 Pacific Highlands Ranch,San diego,CA,92130,America/Los_Angeles,32.9637053,-117.1955855,,Solana
2533,Classic Furniture,,,,1/14/14,,90 Hayward St.,Franklin,MA,2038,America/New_York,42.0845945,-71.4098057,,
2538,Ali's(2538),,,,1/1/17,,,Lawrence,MA,2364,America/New_York,42.7070354,-71.1631137,,
2543,,,,4000.55,,,,,,,,,,,Brimfield
2545,,,,,,,,,,,,,,,Shaw_s
2549,Smith Residence - Northborough,,,5.23,2/4/14,,,Northborough,MA,1532,America/New_York,42.3197933,-71.6423322,,
2550,Howe Residence,,,9.05,1/22/14,,,Stow,MA,1775,America/New_York,42.4195323,-71.5130445,,Howe
2555,Parsons - 35 Lyman System 1,,,,1/28/14,,35 Lyman St.,Northborough,MA,1532,America/New_York,42.3180105,-71.611895,,Parsons
2556,Parsons - 35 Lyman System 2,,,,1/27/14,,35 Lyman St.,Northborough,MA,1532,America/New_York,42.3180105,-71.611895,,Parsons
2557,Parsons - 35 Lyman System 3,,,,1/27/14,,35 Lyman St.,Northborough,MA,1532,America/New_York,42.3180105,-71.611895,,Parsons
2558,Forrestall Charlton LLC,,,997.7,1/20/14,,Lot 1 Bay Path Rd.,Charlton,MA,1507,America/New_York,42.1484287,-71.9242395,,Forrestall
2559,Flair One,,,,11/1/13,,5 Bay Path Rd.,Charlton,MA,1507,America/New_York,42.1486198,-71.9238186,,Flair
2574,Bloomington - Phase 1,,,37.44,6/28/16,,18028 Valley Blvd.,Bloomington,CA,92316,America/Los_Angeles,34.0708746,-117.4110073,,Bloomington
2579,Moseley Corp.,,,,2/6/14,,31 Hayward St.,Franklin,MA,2038,America/New_York,42.0828353,-71.4104551,,
2580,South Street Solar LLC,,,,12/13/13,,South St.,Andover,MA,1810,America/New_York,42.6017155,-71.1798104,,
2588,Schaffner Residence,,,8.18,2/10/14,,,Concord,MA,1742,America/New_York,42.4527187,-71.3705616,,
2590,SED Stonehill Barn Pole 2,,,,2/11/14,,405 Washington St.,Easton,MA,2356,America/New_York,42.059104,-71.089157,,SED
2591,Shore Residence,,,6.87,2/12/14,,,Waltham,MA,2451,America/New_York,42.3971065,-71.2598997,,
2592,Lumber Street Auto Repair,,,,2/18/14,,26 Lumber St.,Hopkinton,MA,1748,America/New_York,42.212978,-71.5425821,,Lumber
2600,Crestview Condominiums,,,,1/20/15,,147 Turner Rd.,Holliston,MA,1746,America/New_York,42.231766,-71.4343427,,Crestview
2605,Naumes - Olivehurst,,,,5/9/14,,3792 Feather River Blvd.,Olivehurst,CA,95961,America/Los_Angeles,39.0637964,-121.5808139,,Naumes
2606,American Alarm,,,23.5,3/28/14,,297 Broadway,Arlington,MA,2474,America/New_York,42.414216,-71.1491452,,
2607,15 Central Street Associates,,,,5/8/14,,15 Central St.,Andover,MA,1810,America/New_York,42.6558466,-71.1417404,,
2608,JP Sullivan,,,,2/21/14,,50 Barnum Rd.,Ayer,MA,1432,America/New_York,42.5511879,-71.5750242,,
2609,Moskal Residence,,,9.5,2/25/14,,,Merrimac,MA,1860,America/New_York,42.8340582,-71.0005509,,
2610,San Antonio School District,,,,2/25/14,,67550 Lockwood-Jolon Rd.,Lockwood,CA,93932,America/Los_Angeles,35.943377,-121.083262,,
2611,Fossey Residence,,,,2/17/14,,,Northborough,MA,1532,America/New_York,42.3197933,-71.6423322,,
2612,Slota Residence,,,5.23,2/25/14,,,Webster,MA,1570,America/New_York,42.0542919,-71.845274,,
2613,28 Hastings - D,,,109.76,2/26/14,,28 Hastings St.,Mendon,MA,1756,America/New_York,42.103126,-71.556438,,28
2616,SED Stonehill Barn Pole 3,,,,2/26/14,,420 Washington St.,Easton,MA,2357,America/New_York,42.0583093,-71.0865679,,SED
2618,SEP Bethany Community Church,,,,3/4/14,,15 Cape Rd.,Mendon,MA,1756,America/New_York,42.100261,-71.5043728,,SEP
2627,Tanner Electric Cooperative,,,,7/26/16,,45710 S.E North Bend Way,North bend,WA,98045,America/Los_Angeles,47.4709566,-121.7302706,,Tanner
2628,Camp Bow Wow,,,61.74,3/30/14,,244 Maple St.,Bellingham,MA,2019,America/New_York,42.1010036,-71.4474222,,Camp
2637,Old Time Sports 1,,,,1/20/14,,10 Fanaras Dr.,Salsbury,MA,1952,America/New_York,42.856385,-70.887891,,Old
2643,Golden Residence,,,,3/12/14,,,Needham,MA,2492,America/New_York,42.2748016,-71.2458436,,
2648,HBS Morgan,,,,3/17/14,,"Morgan Hall, Harvard University, Western Ave.",Boston,MA,2138,America/New_York,42.3655147,-71.1221412,,
2649,Baylor School,,,,5/14/14,,171 Baylor School Drive,Chattanooga,TN,37405,America/New_York,35.0863538,-85.3376483,,
2651,Sonnichsen Residence,,,,3/20/14,,,Stow,MA,1775,America/New_York,42.4195323,-71.5130445,,
2652,Chalupka Residence,,,11.77,3/20/14,,,Oxford,MA,1540,America/New_York,42.1170386,-71.8647212,,
2653,Tremelling Residence,,,14.72,3/20/14,,,Berlin,MA,1503,America/New_York,42.3821508,-71.6317359,,
2654,Lumber Street Auto Repair - Phase 2,,,,7/1/16,,26 Lumber St.,Hopkinton,MA,1748,America/New_York,42.212978,-71.5425821,,
2658,Chamisal Creek,,,658.44,7/26/16,,1253 Cortina School Rd.,Arbuckle,CA,95912,America/Los_Angeles,39.0341618,-122.1537439,,Chamisal
2660,Brookdale Mill,,,,3/15/14,,860 West Central Street,Franklin,MA,2038,America/New_York,42.0902946,-71.4329512,,Brookdale
2661,Shurtleff / Levasseur Residence,,,12.75,3/27/14,,,Wareham,MA,2571,America/New_York,41.766258,-70.704952,,Shurtleff
2665,Duhame Residence,,,5.89,3/27/14,,,Bolton,MA,1740,America/New_York,42.4352987,-71.6080009,,
2666,Khosraviani Residence,,,5.89,3/27/14,,11 Woodcliffe Road,Lexington,MA,2420,America/New_York,42.4270121,-71.2445211,,
2668,Taylor / Taylor-Kennedy Residence,,,4.02,3/27/14,,,Bolton,MA,1740,America/New_York,42.4352987,-71.6080009,,
2669,Reska Residence,,,9.81,3/27/14,,,Wakefield,MA,1880,America/New_York,42.5039395,-71.0723391,,Reska
2673,Big Bear Lake Maintenance Yard,,,,3/30/14,,42040 Garstin Dr.,Big bear lake,CA,92315,America/Los_Angeles,34.2453091,-116.8848457,,Big
2676,Cheshire 126kW,,,,4/1/14,,6931 N.W. 22nd St.,Gainesville,FL,32653,America/New_York,29.718297,-82.353657,,
2677,Silber 2 157.5kW,,,,4/6/14,,901 N.W. 8th Ave.,Gainesville,FL,32601,America/New_York,29.6588686,-82.3345918,,
2678,Silber 1 84kW,,,,4/6/14,,14 S. Main St.,Gainesville,FL,32601,America/New_York,29.651418,-82.325462,,
2686,"SED 67 Wendell St., Quincy, MA",,,,4/8/14,,67 Wendell St.,Quincy,MA,2171,America/New_York,42.2991086,-71.0111463,,SED
2687,"SED 162 Old Colony Avenue, Quincy, MA",,,,4/8/14,,162 Old Colony Ave.,Quincy,MA,2171,America/New_York,42.2616336,-71.0138863,,
2688,"SED 180 Old Colony Avenue, Quincy, MA",,,77.5,4/8/14,,180 Old Colony Ave.,Quincy,MA,2170,America/New_York,42.2608219,-71.0133157,,
2689,Marchesini 157.5kW,,,,4/8/14,,2500 N. Main St.,Gainesville,FL,32609,America/New_York,29.6758011,-82.3222823,,
2690,"SED - 30 Wendell Street, Quincy, MA",,,,4/8/14,,30 Wendell St.,Quincy,MA,2171,America/New_York,42.2720992,-71.010593,,SED
2696,"Pyle, John",,,11.52,7/26/16,,3287 Dayton Rd.,Chico,CA,95928,America/Los_Angeles,39.661114,-121.85938,,Pyle_
2700,Hall Residence - Stow,,,10.35,4/15/14,,,Stow,MA,1775,America/New_York,42.4195323,-71.5130445,,
2701,McCormick Residence - Plainville,,,,4/15/14,,,Plainville,MA,2762,America/New_York,42.0101231,-71.3468091,,
2702,Clarke / Putnam Residence,,,3.92,4/15/14,,,Stow,MA,1775,America/New_York,42.4195323,-71.5130445,,
2710,Benyo Residence,,,10.05,4/21/14,,,Ayer,MA,1432,America/New_York,42.5603587,-71.560526,,
2711,Glauner/McDougald Residence,,,7.65,4/21/14,,,Stow,MA,1775,America/New_York,42.4195323,-71.5130445,,
2713,David Stone,,,,6/13/14,,30 Boston Post Rd.,Wayland,MA,1778,America/New_York,42.3618441,-71.3336795,,
2725,Jarrett Inc.,,,,7/26/16,,12925 Ridge Road,Sutter creek,CA,95685,America/Los_Angeles,38.385755,-120.788763,,Jarrett
2727,SEP St. Paul's Episcopal Church,,,,4/29/14,,61 Wood St.,Hopkinton,MA,1748,America/New_York,42.2273972,-71.5398145,,
2731,Old Time Sports,,,178.2,1/22/14,,10 Fanaras Dr.,Salisbury,MA,1952,America/New_York,42.856385,-70.887891,,Old
2744,Quincy Heights - 222-226 Quincy St. Boston,,,,12/9/14,,222 - 226 Quincy St.,Boston,MA,2121,America/New_York,42.3122183,-71.0738901,,
2745,SED - Coventry Rhode Island Town Hall Annex,,,,2/16/14,,1670 Flat River Rd.,Conventry,RI,2816,America/New_York,41.7006287,-71.5926422,,
2748,"Agricultural Distributing, Inc.",,,133.2,3/2/15,,685 N. Pioneer Ave.,Woodland,CA,95776,America/Los_Angeles,38.6980679,-121.746687,,Agricultural
2755,Yonkers Contracting,,,,5/13/14,,969 Midland Ave,Yonkers,NY,10570,America/New_York,40.9359383,-73.857941,,
2768,Gois Solar Two,,,750.2,9/20/14,,30 Sewell St.,Ashland,MA,1721,America/New_York,42.24711,-71.42383,,Gois
2787,Sacramento Valley Walnut Growers,,,,10/23/14,,896 OBanion Rd.,Yuba city,CA,95991,America/Denver,39.0239341,-121.6246241,,
2799,Borges - Pump,,,,12/8/14,,8350 Brady Rd.,Manteca,CA,95337,America/Los_Angeles,37.726649,-121.204347,,Borges
2805,Quincy Heights - 223-227 Quincy St. Boston,,,,12/9/14,,223 - 227 Quincy St.,Boston,MA,2121,America/New_York,42.3123041,-71.0738145,,
2808,Penfield Residence,,,,5/9/14,,,Westford,MA,1886,America/New_York,42.5899487,-71.4536835,,
2809,,,,,,,,,,,,,,,Bausch
2810,Nutter Residence,,,,6/13/14,,,Uxbridge,MA,1569,America/New_York,42.0499476,-71.6436028,,
2813,Holiday Manufacturing,,,,6/1/14,,4 Tripp St.,Framingham,MA,1702,America/New_York,42.2695914,-71.4124497,,
2819,Glen Growers,,,,11/1/14,,8020 County Road 61,Princeton,CA,95970,America/Los_Angeles,39.4620356,-122.0217805,,Glen
2830,,,,2035.69,,,,,,,,,,,Brimfield
2846,Hewlett Packard - Palo Alto / JB-943387-00,,,,1/1/14,,3000 Hanover St.,Palo alto,CA,94304,America/Los_Angeles,37.4146379,-122.145929,,
2854,Calow Residence,,,10.46,7/7/14,,,Arlington,MA,2474,America/New_York,42.4232158,-71.1537637,,
2855,Consigli Residence,,,7.56,4/3/15,,111 Purchase St.,Milford,MA,1757,America/New_York,42.1574332,-71.5239417,,
2856,Konno Residence,,,6.54,7/9/14,,,Stow,MA,1775,America/New_York,42.4195323,-71.5130445,,
2857,Way Residence,,,7.14,7/9/14,,,Stow,MA,1775,America/New_York,42.4195323,-71.5130445,,
2858,Ogle Residence,,,6.12,7/9/14,,,Stow,MA,1775,America/New_York,42.4195323,-71.5130445,,
2859,Bianchi Business Development LLC,,,,7/7/14,,,Boston,MA,,America/New_York,42.3493639,-71.0808111,,
2860,Conant - Orchards,,,,7/10/14,,3558 Bear River Dr.,Rio oso,CA,95681,America/Los_Angeles,38.98202,-121.483525,,
2861,Goreham Residence,,,12.1,7/10/14,,,Norfolk,MA,2056,America/New_York,42.1208961,-71.3230549,,
2875,Scully Packing - Exeter,,,,7/20/14,,321 3rd St.,Exeter,CA,93221,America/Denver,36.2940479,-119.1298868,,
2879,,,,,,,,,,,,,,,RIN
2883,Milford Industrial Solar: 6-1,,,,8/22/14,,13 Commercial Way,Milford,MA,1757,America/New_York,42.1398331,-71.4884232,,Milford
2886,Bickford Residence,,,14.74,7/29/14,,,Bolton,MA,1740,America/New_York,42.4352987,-71.6080009,,
2891,Quincy Heights - 228 Quincy St.,,,,12/9/14,,228 Quincy St.,Boston,MA,2121,America/New_York,42.3124828,-71.0735011,,
2893,JFW - La Crema,,,,12/30/14,,3690 Laughlin Rd.,Windsor,CA,95492,America/Denver,38.4982499,-122.8113933,,
2894,,,,,,,,,,,,,,,JFW
2898,,,,,10/15/14,,1400 Goodman St. N,Rochester,NY,14609,America/New_York,43.179895,-77.575732,,
2906,Parsons - 163 Pioneer Drive,,,503.25,8/1/14,,163 Pioneer Dr.,Leominster,MA,1453,America/New_York,42.531515,-71.7079361,,Parsons
2945,City of Bishop Waste Water Treatment Plant,,,89.28,3/1/16,,980 Poleta Rd.,Bishop,CA,93514,America/Los_Angeles,37.3583798,-118.3775358,,City
2964,,,,,,,,,,,,,,,Sierra
2969,Solren Test Eng - XTM ( HALT test ),,,,8/1/14,,360 Merrimack street,Lawrence,MA,1844,America/New_York,42.707035,-71.163114,,
2989,Quincy Heights - 97 Woodledge,,,,9/1/14,,97 Woodledge St.,Boston,MA,2125,America/New_York,42.314816,-71.074774,,
2991,Calandrella Residence,,,10.7,9/16/14,,,Hudson,MA,1749,America/New_York,42.3893848,-71.560526,,
2997,Andrews Residence - West Wareham,,,12.73,9/15/14,,,West wareham,MA,2576,America/New_York,41.7803507,-70.7584767,,
2998,Schexnaydre Residence,,,10.36,9/15/14,,,Lancaster,MA,1523,America/New_York,42.4850811,-71.6792008,,
2999,Drayton Residence,,,11.77,9/15/14,,,Foxborough,MA,2035,America/New_York,42.0706608,-71.2517835,,
3001,Smith Residence - Stow,,,10.2,9/15/14,,,Stow,MA,1775,America/New_York,42.4195323,-71.5130445,,
3002,Ramos Residence,,,,9/15/14,,,Acton,MA,1720,America/New_York,42.4836453,-71.4418101,,
3004,Lonberg Residence,,,10.2,9/16/14,,,Acton,MA,1720,America/New_York,42.4836453,-71.4418101,,
3005,Murphy Residence - Harvard,,,,9/19/14,,,Harvard,MA,1451,America/New_York,42.5073686,-71.5842643,,
3009,SED - Sally Blair Ames Sports Complex,,,318.73,1/6/16,,320 Washington St.,North easton,MA,2356,America/New_York,42.0613154,-71.0776343,,SED
3022,Campbell Residence - South Hamilton,,,14.56,10/1/14,,315 Sagamore St.,South hamilton,MA,1982,America/New_York,42.6349926,-70.82386,,Campbell
3031,Farmers Electric Cooperative 1,,,796.95,10/5/14,,1959 Yoder Ave. S.W.,Kalona,IA,52247,America/New_York,41.5665353,-91.7369074,,Farmers
3035,St. Marks,,,15,10/10/14,,301 A St. SE,Washington,DC,20002,America/New_York,38.8885086,-77.0017451,,St_
3053,,,,,10/15/14,,1400 Goodman St. N,Rochester,NY,14609,America/New_York,43.179895,-77.575732,,
3057,AmeriPride,,,,10/20/14,,284 Greenwood St.,Worcester,MA,1607,America/New_York,42.218417,-71.798113,,
3062,Moresco Groves,,,,10/30/14,,4373 River Rd.,Colusa,CA,95932,America/New_York,39.3075421,-122.0128271,,
3063,Rio Oso Groves,,,,10/30/14,,15 Pleasant Grove Rd.,Wheatland,CA,95901,America/Los_Angeles,38.99103,-121.489801,,
3076,McGee Toyota,,,101.4,12/19/14,,860 Washington St.,Hanover,MA,2339,America/New_York,42.1286105,-70.8327134,,
3079,,,,,3/11/15,,30 Golf Dr.,Plymouth,MA,2360,America/New_York,41.8820649,-70.595189,,Village
3083,,,,,,,,,,,,,,,Flemming
3086,East Coast Welding,,,,2/19/15,,104 Parker St.,Newburyport,MA,1950,America/New_York,42.7956573,-70.8903104,,East
3088,SED Hopping Brook Community Solar Field,,,,6/19/15,,58C Hopping Brook Rd.,Holliston,MA,1746,America/New_York,42.1697382,-71.468029,,SED
3090,,,,151.25,2/1/15,,90 Olive St.,Attleboro,MA,2703,America/New_York,41.9364779,-71.2896856,,Larson
3093,Latham Center,,,24.26,8/10/16,,1646 Main St.,Brewster,MA,2631,America/New_York,41.7553929,-70.0904655,,
3095,Swissturn / USA,,,135.3,1/18/15,,21 Dana Rd.,Oxford,MA,1540,America/New_York,42.1319507,-71.8622287,,Swissturn
3103,,,,,12/12/14,,400 Business Park Dr.,Tyngsboro,MA,1879,America/New_York,42.6857459,-71.4485817,,Jenike
3112,Mary Carr Greer Elementary School,,,74.52,8/15/16,,190 Lambs Ln.,Charlottesville,VA,22901,America/New_York,38.078332,-78.505983,,Mary
3113,Canton Distributors,,,194.7,2/19/15,,250 Dan Rd.,Canton,MA,2021,America/New_York,42.152537,-71.120254,,Canton
3115,Templeton Solar Project,,,3515.4,12/21/14,,103 Farnsworth Rd.,Templeton,MA,1468,America/New_York,42.5214847,-72.0682529,,Templeton
3116,Milford Industrial Solar: 6-2,,,224.4,2/18/15,,8 Commercial Way,Milford,MA,1757,America/New_York,42.1409104,-71.4922614,,Milford
3117,J Perl Associates LLC / Akers Industries Inc.,,,99,1/1/15,,115 Shawmut Rd.,Canton,MA,2021,America/New_York,42.184696,-71.1543207,,J
3119,Albemarle High School,,,124.2,8/15/16,,2775 Hydraulic Rd.,Charlottesville,VA,22901,America/New_York,38.0754627,-78.5014875,,Albemarle
3120,,,,,8/17/16,,"MCH1 Mid N Side, Lone Star Rd.",Arbuckle,CA,95912,America/Los_Angeles,39.100938,-122.0790419,,T_P
3124,Globe Liquors,,,,12/4/14,,180 President Ave.,Fall river,MA,2720,America/New_York,41.7167987,-71.1526033,,Globe
3125,Fourstar Connections,,,99,12/4/14,,1 Bonazzoli Ave.,Hudson,MA,1749,America/New_York,42.389251,-71.5501589,,Fourstar
3126,Franklin Ford,,,,12/31/14,,175 E. Central St.,Franklin,MA,2038,America/New_York,42.0814205,-71.3899523,,Franklin
3132,,,,,,,,,,,,,,,Upchurch
3133,,,,6478.81,,,,,,,,,,,Boseman
3134,,,,6374.5,,,,,,,,,,,Red
3135,Samarcand Solar Farm,,,,9/16/14,,1605 Samercand Rd.,Biscoe,NC,27209,America/New_York,35.3106588,-79.6964157,,
3136,Kenansville Solar Farm,,,,11/5/14,,1301 Bowdens Rd.,Kenansville,NC,28349,America/New_York,35.010843,-78.0037938,,
3137,Drumheller - Myers,,,,11/12/14,,7538 E. Glenn Rd.,Colusa,CA,95932,America/Los_Angeles,39.3838105,-121.956965,,
3141,,,,,8/12/16,,"RR6 SE Tip, Schadd Rd.",Williams,CA,95987,America/Los_Angeles,39.1546137,-122.1494187,,T_P
3148,,,,113.76,8/15/16,,"Sk1 Mid W. Side, Lone Star Rd.",Williams,CA,95987,America/Los_Angeles,39.1465892,-122.1376917,,T_P
3149,Gateway Church,,,386.1,2/12/15,,200 Boscombe Ave.,Staten island,NY,10309,America/New_York,40.5229945,-74.2310469,,Gateway
3173,Dutra - Dairy,,,,11/20/14,,5496 W. Ripon Rd.,Manteca,CA,95337,America/Los_Angeles,37.7392927,-121.2436577,,
3175,U.P.S.E.S.,,,,11/24/14,,2818 Avenida De Portugal,San diego,CA,92106,America/Los_Angeles,32.7213346,-117.2296725,,
3176,MutualOne Bank,,,,11/25/14,,160 Cochituate Rd.,Framingham,MA,1701,America/New_York,42.3012359,-71.4076256,,
3177,Big Bear Lake Civic Center,,,110.72,11/20/14,,39707 Big Bear Blvd.,Big bear lake,CA,92315,America/Los_Angeles,34.2379694,-116.9352914,,Big
3187,ARTIC,,,,12/2/14,,2626 E. Katella Ave.,Anaheim,CA,92806,America/Los_Angeles,33.8034872,-117.8773866,,ARTIC
3194,Rams Horn Solar Center,,,,11/5/14,,4008 Whichard Rd.,Greenville,NC,27834,America/New_York,35.6375139,-77.322137,,
3206,RT Engineering,,,,12/1/14,,1 Kenwood Cir.,Franklin,MA,2038,America/New_York,42.0715233,-71.4227934,,RT
3226,,,,,,,,,,,,,,,BUCRA
3227,Motorcycles of Manchester - Foxborough,,,283.03,7/8/15,,1000 Washington St.,Foxborough,MA,2035,America/New_York,42.0736766,-71.2864929,,Motorcycles
3229,Solect - Quincy Commons,,,,4/15/15,,290 Blue Hill Ave.,Boston,MA,2119,America/New_York,42.3146621,-71.0784402,,
3231,Mortimer Sutherland Middle School,,,279.45,8/18/16,,2801 Powell Creek Dr.,Charolettesville,VA,22911,America/New_York,38.1124889,-78.4369144,,Mortimer
3233,Baker Butler Elementary School,,,223.56,8/17/16,,2740 Proffit Rd.,Charlottesville,VA,22911,America/New_York,38.123783,-78.42247,,Baker
3239,Canyon Creek Ranch,,,,8/12/16,,9404 Almond St.,Alta loma,CA,91701,America/Los_Angeles,34.1627891,-117.600167,,Canyon
3240,Gloucester Marina,,,24.18,8/22/16,,30 Marsh St.,Gloucester,MA,1930,America/New_York,42.622058,-70.679995,,Gloucester
3242,Mastria Nissan,,,,4/15/15,,1305 New State Highway,Raynham,MA,2767,America/New_York,41.9038528,-71.0175369,,Mastria
3252,Prairie Grove Telephone Co.,,,,12/23/14,,921 Escue Dr.,Prairie grove,AR,72753,America/Chicago,35.97332,-94.332605,,Prairie
3254,Dutra - CP 1,,,31.86,12/30/14,,22525 South Airport Way,Manteca,CA,95336,America/Los_Angeles,37.7518821,-121.2522186,,Dutra
3255,Quincy Heights - 104 Woodledge,,,5,12/29/14,,104 Woodledge St.,Boston,MA,2121,America/New_York,42.3146983,-71.0743852,,
3256,Quincy Heights - 102 Woodledge,,,5,12/29/14,,102 Woodledge St.,Boston,MA,2121,America/New_York,42.31482,-71.0744033,,
3257,Quincy Heights - 99 Woodledge,,,,12/29/14,,99 Woodledge St.,Boston,MA,2125,America/New_York,42.3146879,-71.074717,,
3263,Dutra - GM 2,,,31.86,12/30/14,,22525 South Airport Way,Manteca,CA,95336,America/Los_Angeles,37.7518821,-121.2522186,,Dutra
3264,Dutra - CP 3,,,31.86,12/30/14,,22525 South Airport Way,Manteca,CA,95336,America/Los_Angeles,37.7518821,-121.2522186,,Dutra
3265,Dutra - GM 4,,,,12/30/14,,22525 South Airport Way,Manteca,CA,95336,America/Los_Angeles,37.7518821,-121.2522186,,Dutra
3269,Wamsutta LLC,,,220.66,10/27/14,,75 Wamsutta St.,New bedford,MA,2740,America/New_York,41.650581,-70.9273022,,Wamsutta
3274,Mastria Buick GMC Cadillac,,,82.8,1/13/15,,1525 New State Highway,Raynham,MA,2767,America/New_York,41.9032612,-71.0106645,,Mastria
3275,Luckett - Waltham,,,,1/20/15,,,Watham,MA,2451,America/New_York,42.3971065,-71.2598997,,
3276,HBS Batten Hall,,,113.85,1/1/15,,25 Harvard Way,Boston,MA,2163,America/New_York,42.3663987,-71.1228468,,
3284,Cain Ranch - Car Port,,,122.4,1/22/15,,426 Johns School Rd.,Arbuckle,CA,95912,America/Los_Angeles,38.962995,-121.968054,,Cain
3298,Clairmont Residence,,,7.56,8/26/16,,237 Prospect St.,Norwell,MA,2061,America/New_York,42.1701847,-70.8487668,,
3302,,,,18.9,8/9/16,,RR HDQ @ HSE Shaad Rd.,Williams,CA,95987,America/Los_Angeles,39.1546137,-122.1494187,,T_P
3312,New England Apple Products Company,,,302.4,8/26/16,,320 Industrial Rd.,Leominster,MA,1453,America/New_York,42.5597345,-71.7527024,,New
3324,Heidrick - Shop,,,,2/5/15,,36826 County Road 24,Woodland,CA,95695,America/Los_Angeles,38.665034,-121.82456,,Heidrick
3330,Gerry Wood Honda,,,86.63,2/1/15,,414 Jake Alexander Blvd. S.,Salisbury,NC,28147,America/New_York,35.6480132,-80.4921762,,Gerry
3339,La Bandera,,,,2/16/15,,"Barrio Escalante, Rotonda La Bandera",Montes de oca,SJ,11501,America/Chicago,9.9393292,-84.0549906,,La
3344,Delman Residence,,,10.4,8/1/16,,11 Chuck Wagon Rd.,Signal hills,CA,90274,America/Los_Angeles,33.7581621,-118.3384785,,Delman
3347,Alder Foods,,,108.29,5/22/15,,1 Foxwood Dr.,Walpole,MA,2081,America/New_York,42.1470851,-71.2517835,,Alder
3356,Union Square Realty,,,132.6,9/20/15,,511 Lancaster St.,Leominster,MA,1453,America/New_York,42.5117183,-71.7407024,,Union
3358,Nationwide Recycling,,,195.25,4/23/15,,1340 Lunenberg Rd.,Lancaster,MA,1523,America/New_York,42.5028958,-71.6913698,,Nationwide
3378,,,,,,,,,,,,,,,Turner
3388,Growers Air Service,,,22.5,3/12/15,,41167 County Road 27,Woodland,CA,95776,America/Los_Angeles,38.6181123,-121.739759,,Growers
3394,Welch Residence,,,12,3/16/15,,,Acton,MA,1720,America/New_York,42.4836453,-71.4418101,,
3395,Westlake - 3059,,,577.72,3/15/15,,3059 Townsgate Rd.,Thousand oaks,CA,91361,America/Los_Angeles,34.1528465,-118.8200785,,Westlake
3399,Glenn Growers - Office,,,,3/10/15,,8020 County Road 61,Princeton,CA,95970,America/Los_Angeles,39.4620356,-122.0217805,,Glenn
3400,,,,,,,,,,,,,,,Miller
3411,LMF Franklin Corp. Franchi,,,590.7,3/24/15,,25 Kenwood Circle,Franklin,MA,2038,America/New_York,42.0716756,-71.4183405,,LMF
3413,Natural Grocers by Vitamin Cottage_Golden CO PV 1,,,49.73,3/1/15,,2401 S Ford St,Golden,CO,80401,America/Denver,39.7469164,-105.2091395,,Natural
3421,Mastria Subaru,,,52.52,4/2/15,,1255 New State Hwy.,Raynham,MA,2767,America/New_York,41.9040527,-71.0182987,,Mastria
3422,Quincy Heights - 6 Dunkeld St.,,,6,4/3/15,,6 Dunkeld St.,Boston,MA,2121,America/New_York,42.3128957,-71.0754579,,
3423,Quincy Heights - 7 Dunkeld St.,,,,4/3/15,,7 Dunkeld St.,Boston,MA,2121,America/New_York,42.3128007,-71.0756803,,
3424,Quincy Heights - 10 Dunkeld St. Boston,,,,4/3/15,,10 Dunkeld St.,Boston,MA,2121,America/New_York,42.3127439,-71.0755434,,
3425,Quincy Heights - 180 Howard St.,,,,4/3/15,,180 Howard St.,Boston,MA,2125,America/New_York,42.3141999,-71.075166,,
3426,Quincy Heights - 177 Magnolia St. Boston,,,6,4/3/15,,177 Magnolia St.,Boston,MA,2125,America/New_York,42.3127704,-71.0729551,,
3430,Quincy Heights - 89 Fayston St.,,,6,4/7/15,,89 Fayston St.,Boston,MA,2121,America/New_York,42.3120197,-71.0753265,,
3434,Cain Ranch - Ground Mount,,,54,4/8/15,,Lone Star Rd.,Arbuckle,CA,95912,America/Los_Angeles,39.100938,-122.0790419,,Cain
3439,Bains - Highway 99 Chevron,,,8.96,5/15/15,,4142 Highway 99,Yuba city,CA,98092,America/Los_Angeles,39.0669286,-121.6328763,,Bains
3452,Expressway Toyota,,,54.34,7/3/15,,700 William T. Morrissey Blvd.,Boston,MA,2122,America/New_York,42.3168473,-71.0489348,,Expressway
3474,Worcester Discount Liquors - 254 Mill Street,,,,5/11/15,,254 Mill St.,Worcester,MA,1602,America/New_York,42.2543271,-71.8447876,,Worcester
3475,California Transplants,,,,5/19/15,,4100 Stuhr Rd.,Newman,CA,95360,America/Los_Angeles,37.3275565,-121.0990877,,California
3483,Village Green,,,44.72,5/20/15,,19 Boxwood Dr.,Littleton,MA,1460,America/New_York,42.5252317,-71.4335647,,
3489,Mahoney's Garden Center - Falmouth,,,54.08,9/2/15,,958 E. Falmouth Hwy.,Falmouth,MA,2536,America/New_York,41.5800904,-70.5413959,,Mahoney_s
3491,Leewood Realty,,,267.75,5/28/15,,60 Newark St.,Haverhill,MA,1832,America/New_York,42.800683,-71.1091268,,Leewood
3497,Phil Harper Sr.,,,8.46,4/29/15,,832 Aldrich St.,Uxbridge,MA,1569,America/New_York,42.0209792,-71.6722986,,
3498,Phil Harper Jr.,,,,6/2/15,,66 Fiske Mill Rd.,Upton,MA,1568,America/New_York,42.168761,-71.5671952,,
3506,The Dodge Company,,,202.8,8/18/15,,9 Progress Rd.,Billerica,MA,1821,America/New_York,42.5229833,-71.2329426,,The
3513,Southborough Solar LLC,,,,6/8/15,,146 Cordaville Rd.,Southborough,MA,1772,America/New_York,42.2897588,-71.5254603,,
3514,Fore Kicks - Marlborough,,,309.12,6/10/15,,219 Forest St.,Marlborough,MA,1752,America/New_York,42.3338722,-71.5791067,,
3515,Fore Kicks - Norfolk,,,282,6/10/15,,10 Pine St.,Norfolk,MA,2056,America/New_York,42.0893564,-71.2980001,,
3516,Holden Discount Liquors,,,,6/12/15,,673 Main St.,Holden,MA,1520,America/New_York,42.3398992,-71.83902,,Holden
3517,28 Hastings St Corporation,,,100.8,6/14/15,,28 Hastings St. Building E,Mendon,MA,1756,America/New_York,42.103126,-71.556438,,
3524,,,,,,,,,,,,,,,Hopping
3534,ERA Key Realty Services,,,,6/23/15,,76 Church St.,Whitinsville,MA,1588,America/New_York,42.1113822,-71.6612539,,ERA
3536,Kay Dix,,,119.04,7/7/15,,14400 Andrus Island Rd.,Walnut grove,CA,95690,America/Los_Angeles,38.229785,-121.535614,,Kay
3543,Petter Residence,,,13.07,7/9/14,,,Stow,MA,1775,America/New_York,42.4195323,-71.5130445,,
3544,Rogers Residence,,,11.48,7/6/14,,,Bolton,MA,1740,America/New_York,42.4352987,-71.6080009,,
3545,Engstrand Residence,,,13.77,7/6/14,,,Sutton,MA,1590,America/New_York,42.1421373,-71.7385225,,
3546,Marsh Residence,,,,7/6/14,,,Westminster,MA,1473,America/New_York,42.5580692,-71.8927076,,
3547,Desisto Residence,,,10.41,7/9/14,,,Uxbridge,MA,1569,America/New_York,42.0499476,-71.6436028,,
3549,Rudge Residence,,,10.79,6/11/15,,,Millbury,MA,1527,America/New_York,42.1805434,-71.7978333,,
3551,Milliston Place - Strip Plaza,,,77.74,6/18/15,,4-18 Milliston Rd.,Millis,MA,2054,America/New_York,42.1680406,-71.3550902,,Milliston
3552,Milliston Place - Office Building,,,44.59,6/15/15,,730 Main St.,Millis,MA,2054,America/New_York,42.1670707,-71.3541934,,Milliston
3555,North Bay Industries,,,92.4,7/20/15,,,Rohnert park,CA,94928,America/Los_Angeles,38.3437823,-122.7011951,,North
3558,Long Subaru - Dealership,,,167.4,7/21/15,,7 Sutton Rd.,Webster,MA,1570,America/New_York,42.063022,-71.858185,,Long
3562,,,,110.63,,,,,,,,,,,Strafford
3577,"Janis Research Company, LLC - Building 1",,,302.4,9/1/16,,225 Wildwood Ave.,Woburn,MA,1801,America/New_York,42.4920319,-71.1343611,,Janis
3583,"McInturf, David",,,9.69,7/29/15,,245 Fairhill Dr.,Oroville,CA,95966,America/Los_Angeles,39.489615,-121.5048373,,McInturf_
3585,Mastria Mazda,,,42,7/24/15,,1545 New State Hwy.,Raynham,MA,2767,America/New_York,41.9033116,-71.009792,,Mastria
3590,Windsor Architectural Woodworking,,,148.72,6/18/15,,212 Maplewood St.,Malden,MA,2148,America/New_York,42.4275271,-71.0446696,,Windsor
3593,Donovan Project,,,,5/27/15,,134 Southern Ave.,Essex,MA,1929,America/New_York,42.61932,-70.7697419,,
3598,Worcester Discount Liquors - Shrewsbury St.,,,45.43,6/18/15,,129 Shrewsbury St.,Worcester,MA,1604,America/New_York,42.264001,-71.78853,,Worcester
3605,"Reiff, Allan",,,,8/15/15,,40905 County Road 14,Woodland,CA,95776,America/Los_Angeles,38.7781414,-121.7592549,,Reiff_
3607,Durham Firehouse,,,,8/17/15,,41 Main St.,Durham,CT,6422,America/New_York,41.468296,-72.679108,,Durham
3611,Cochituate Village - 169 Commonwealth Road,,,,8/6/15,,169 Commonwealth Rd.,Wayland,MA,1778,America/New_York,42.317418,-71.3630121,,Cochituate
3624,JP Sullivan Phase 2,,,269.96,8/10/15,,50 Barnum Rd.,Ayer,MA,1748,America/New_York,42.5511879,-71.5750242,,JP
3630,Podesta - Huller,,,368.28,10/22/15,,2280 S. Jack Tone Rd.,Stockton,CA,95215,America/Los_Angeles,37.948237,-121.143901,,
3634,Dutchess Beer Distributors,,,280.6,8/28/15,,5 Laurel St.,Poughkiepsie,NY,12601,America/New_York,41.7009159,-73.9350636,,Dutchess
3635,"Hyde Tools, Inc.",,,,8/31/15,,54 Eastford Rd.,Southbridge,MA,1550,America/New_York,42.069461,-72.0375186,,
3639,,,,,,,,,,,,,,,Colton
3642,Crossroads Academy,,,40.32,9/1/15,,95 Dartmouth College Highway,Lyme,NH,3768,America/New_York,43.7790761,-72.1820586,,Crossroads
3654,Milliston Common Main Plaza,,,385.06,8/9/15,,20A Milliston Rd.,Millis,MA,2054,America/New_York,42.1682205,-71.3535921,,Milliston
3655,EJR Harr Realty Trust,,,390,9/9/15,,401 Elm St.,Marlborough,MA,1752,America/New_York,42.3490833,-71.5738291,,EJR
3660,Holliston Meadows Pet Resort,,,34.1,9/13/15,,140 Summer St.,Holliston,MA,1746,America/New_York,42.1782224,-71.443619,,Holliston
3664,DMG Farms - Walnuts,,,52.08,9/15/15,,3239 County Road U,Glenn,CA,95948,America/Los_Angeles,39.6442657,-122.0743421,,DMG
3665,Bear River Supply,,,34.2,9/16/15,,218 Pleasant Grove Rd,Rio oso,CA,95074,America/Los_Angeles,38.9796345,-121.4872577,,Bear
3668,Worcester - Mountain Street LLC,,,,9/16/15,,29 Mountain St.,Worcester,MA,1606,America/New_York,42.3229998,-71.7899018,,Worcester
3673,,,,,,,,,,,,,,,Fortifiber
3680,Milliston Common - Gold's Gym,,,145.86,9/25/15,,27 Milliston Rd.,Millis,MA,2054,America/New_York,42.1678674,-71.3517267,,Milliston
3681,,,,,9/18/15,,15 Joseph St.,Malden,MA,2148,America/New_York,42.4305867,-71.0556267,,A
3682,Amvets Post 79,,,22.72,9/30/15,,1 Superior Dr.,Natick,MA,1760,America/New_York,42.302536,-71.3711618,,Amvets
3691,SED Hopkinton Center for the Arts,,,,10/6/15,,98 Hayden Rowe St.,Hopkinton,MA,1748,America/New_York,42.217327,-71.5168237,,
3693,Cyrus Properties LLC,,,,10/7/15,,465 Turnpike Rd.,Canton,MA,2021,America/New_York,42.1666151,-71.1115223,,Cyrus
3698,Thomas Solar,,,,10/12/15,,1710 W Sun East Rd.,Ellensburg,WA,98926,America/Los_Angeles,47.152347,-120.564254,,
3699,"Giesbretch, Chad",,,,10/12/15,,1948 Road X,Priceton,CA,95943,America/Los_Angeles,39.5324286,-122.0274254,,Giesbretch_
3700,MGH - CNY Bldg. 199,,,,12/15/15,,199 13th St.,Charlestown,MA,2129,America/New_York,42.3764798,-71.0504464,,
3706,Nelson - Dryers,,,,10/10/15,,2991 Cornelius Ave.,Rio oso,CA,95668,America/Los_Angeles,38.923383,-121.510216,,Nelson
3707,,,,,10/15/15,,25321 Pennsylvania Ave.,Corning,CA,96021,America/Los_Angeles,39.8918713,-122.0908938,,Whiteley_
3717,Fleet Guy,,,,10/28/15,,1317 Vinci Ave.,Sacramento,CA,95838,America/Los_Angeles,38.6662041,-121.4345918,,Fleet
3718,Cochituate Village - 25 Main Street,,,,8/1/15,,25 Main St.,Wayland,MA,1778,America/New_York,42.3168982,-71.362332,,Cochituate
3736,"Railside Industries, Inc.",,,,10/1/15,,97 Railside Dr.,Weyers cave,VA,24486,America/New_York,38.2808153,-78.9286916,,
3749,Goodman Ranch,,,59.52,10/28/15,,8581 Bigelow Road,Live oak,CA,95953,America/Los_Angeles,39.293759,-121.771489,,Goodman
3750,Harvard Law School - Wasserstien,,,95.16,9/18/15,,18 Everett St.,Cambridge,MA,1238,America/New_York,42.3794399,-71.1182292,,Harvard
3751,Sacramento Valley Seed,,,160.65,11/3/15,,5498 Lurline Ave.,Williams,CA,95987,America/Los_Angeles,39.2168048,-122.191348,,Sacramento
3766,"Minuteman Trucks, Inc.",,,,12/1/15,,2181 Providence Hwy.,Walpole,MA,2081,America/New_York,42.110385,-71.246123,,Minuteman
3767,Ichigo Ichie,,,46.97,11/10/15,,837 W. Central St.,Franklin,MA,2038,America/New_York,42.0917839,-71.4308335,,Ichigo
3771,Fore Kicks - Taunton,,,296.77,9/18/15,,223 Fremont St.,Taunton,MA,2780,America/New_York,41.9292214,-71.1212825,,Fore
3773,Jake Kley,,,21.96,11/12/15,,1438 Ohm Rd.,Arbuckle,CA,95912,America/Los_Angeles,39.050792,-122.040699,,Jake
3774,Hunt Farm 202 Solar,,,,4/1/16,,207 Daniel Shays Hwy.,Orange,MA,1364,America/New_York,42.5540309,-72.2896389,,Hunt
3776,CSS PV Array,,,,11/16/15,,445 Concord Ave,Cambridge,MA,2138,America/New_York,42.3868856,-71.1386316,,
3778,Aroyan,,,57.46,11/18/15,,1423 Bedford St.,Abington,MA,2351,America/New_York,42.1413877,-70.9518007,,Aroyan
3781,Podesta - Processer,,,111.6,11/20/15,,7367 E. Mariposa Rd.,Stockton,CA,95215,America/Los_Angeles,37.9137937,-121.1863869,,
3790,Wilbur Packing,,,409.2,11/30/15,,1500 Eager Road,Live oak,CA,95953,America/Los_Angeles,39.1885369,-121.638639,,Wilbur
3793,373 - 383 West Street - Nominee Realty Trust,,,535.68,11/23/15,,373 - 383 West St.,Hopedale,MA,1747,America/New_York,42.1546502,-71.5651983,,373
3798,"Brown, Daniel",,,,12/1/15,,25291 McIntire Rd.,Clements,CA,95227,America/Los_Angeles,38.219383,-121.040213,,Brown_
3800,,,,74.48,,,,,,,,,,,Mason
3801,Wickaboag Solar,,,,4/1/15,,94 John Gilbert Rd.,West brookfield,MA,1585,America/New_York,42.2698838,-72.1691075,,Wickaboag
3805,Russo Marine,,,,12/2/15,,10 Hutchinson Dr.,Danvers,MA,1923,America/New_York,42.5529573,-70.9326672,,Russo
3819,Dennison Lubricants - Worcester,,,383.24,12/10/15,,692 Millbury St.,Worcester,MA,1607,America/New_York,42.2380762,-71.7977521,,Dennison
3821,Hancock PV,,,2258.96,12/1/15,,297 Brodie Mountain Rd.,Hancock,MA,2137,America/New_York,42.5637974,-73.284874,,Hancock
3843,Penning Farms,,,,12/21/15,,8109 Everglade Rd.,Yuba city,CA,95676,America/Los_Angeles,38.990703,-121.767264,,Penning
3844,Big Valley Ag,,,43.4,12/21/15,,954 Highway 99,Gridley,CA,95948,America/Los_Angeles,39.340532,-121.683979,,Big
3854,Saber Auto Body,,,74.36,12/30/15,,231 Bedford St.,Fall river,MA,2720,America/New_York,41.7009147,-71.151118,,Saber
3855,Cyn Environmental,,,25.2,12/30/15,,100 Tosca Dr.,Stoughton,MA,2072,America/New_York,42.1338539,-71.1257313,,Cyn
3856,Shaws Boat Yard,,,,12/30/15,,86 Main St.,Dighton,MA,2715,America/New_York,41.8145322,-71.1158394,,Shaws
3857,Christopher Lindstrom Roof Top,,,,12/30/15,,56 Worcester Rd.,Webster,MA,1570,America/New_York,42.0669847,-71.8636647,,Christopher
3858,Bellingham Plaza,,,249.86,12/18/15,,15 N. Main St.,Bellingham,MA,2019,America/New_York,42.0894465,-71.4747312,,Bellingham
3859,SED Paradigm Properties - Building 5,,,113.4,12/15/15,,555 Virginia Rd.,Concord,MA,1742,America/New_York,42.4676146,-71.3034752,,SED
3860,Cotting School,,,,12/18/15,,453 Concord Ave.,Lexington,MA,2421,America/New_York,42.4199647,-71.2373977,,Cotting
3861,SED Paradigm Properties - Building 3,,,,12/18/15,,575 Virginia Rd.,Concord,MA,1742,America/New_York,42.4672473,-71.302176,,SED
3862,SED Paradigm Properties - Building 4,,,173.25,12/18/15,,561 Virginia Rd.,Concord,MA,1742,America/New_York,42.4683167,-71.3023616,,SED
3864,,,,,,,,,,,,,,,Danna
3866,,,,1046.12,,,,,,,,,,,Goodyear
3868,Atlas Brew Works,,,62.48,1/5/16,,"2052 West Virginia Ave. N.E., Ste. 102",Washington,DC,20002,America/New_York,38.9148396,-76.9813627,,Atlas
3876,Sheep Barn,,,178.56,1/8/16,,4748 River Rd.,Colusa,CA,95932,America/Los_Angeles,39.3375839,-122.0063235,,Sheep
3881,Nestor - El Rio,,,64.8,1/4/16,,13852 E. Peltier Rd.,Acampo,CA,95220,America/Los_Angeles,38.18707,-121.145156,,
3889,SED Braun's Express,,,,1/1/16,,10 Tandem Way,Hopedale,MA,1747,America/New_York,42.1074447,-71.5093811,,SED
3890,Mercury Wire Products,,,249.6,1/14/16,,1 Mercury Dr.,Spencer,MA,1562,America/New_York,42.256608,-71.9632888,,Mercury
3891,MDP 245 Riverside Commons,,,,1/14/16,,245 River St.,Fitchburg,MA,1420,America/New_York,42.584552,-71.8173849,,MDP
3901,Headquarters,,,,1/15/16,,4622 River Rd.,Colusa,CA,95932,America/Los_Angeles,39.3346962,-122.0168594,,Headquarters
3913,Pine Creek - Shop,,,11.16,1/21/16,,7020 Cana Hwy.,Chico,CA,95973,America/Los_Angeles,39.8404202,-122.0162161,,Pine
3914,Pine Creek - 100,,,89.28,1/21/16,,7020 Cana Hwy.,Chico,CA,95928,America/Los_Angeles,39.8404202,-122.0162161,,Pine
3925,"Gaston Electrical / Weber Bros., LLC",,,,1/1/16,,85 Morse St.,Norwood,MA,2062,America/New_York,42.1720535,-71.2032408,,Gaston
3926,,,,,1/1/16,,10 Maple St.,Ware,MA,1082,America/New_York,42.25842,-72.239616,,Quabbin
3927,,,,,1/1/16,,12 Maple St.,Ware,MA,1082,America/New_York,42.2584208,-72.2394551,,Quabbin
3928,CSH Industries - AJ Providers,,,,1/28/16,,15 Apollo 11 Rd.,Plymouth,MA,2360,America/New_York,41.958703,-70.690212,,CSH
3929,Carter Street Realty - Turf Time,,,145.08,1/28/16,,20 Carter St.,Tewksbury,MA,1876,America/New_York,42.6207775,-71.1945155,,Carter
3930,General Woodworking - 224 Walker Street,,,,1/28/16,,224 Walker St.,Lowell,MA,18501,America/New_York,42.6405765,-71.3300143,,General
3931,Lincoln Woods - Ground Mount,,,,1/28/16,,50 Wells Rd.,Lincoln,MA,1773,America/New_York,42.4161815,-71.3238879,,Lincoln
3932,Lincoln Woods - Roof Mount,,,,1/28/16,,50 Wells Rd.,Lincoln,MA,1773,America/New_York,42.4161815,-71.3238879,,Lincoln
3933,Sky Buffet,,,,1/28/16,,340 E. Main St.,Milford,MA,1757,America/New_York,42.1527242,-71.4925011,,Sky
3934,Select Development - Somerville,,,,1/28/16,,66 Union Sq.,Somerville,MA,2143,America/New_York,42.3798617,-71.0951016,,Select
3945,,,,,2/1/16,,23291 E. River Rd.,Escalon,CA,95320,America/Los_Angeles,37.759693,-121.021296,,Hoff_
3947,,,,1004.4,,,,,,,,,,,Payne
3954,Rivermaid Green,,,,1/7/16,,6011 E. Pine St.,Lodi,CA,95240,America/Los_Angeles,38.13497,-121.241025,,Rivermaid
3955,,,,,,,,,,,,,,,Rivermaid
3958,Sutter Rice,,,483.6,2/2/16,,1429 Acacia Ave.,Sutter,CA,95776,America/Los_Angeles,39.149137,-121.7527155,,
3959,"Packaging Specialist, Inc.",,,,2/2/16,,3663 Feather River Blvd.,Olivehurst,CA,95961,America/Los_Angeles,39.059983,-121.577391,,Packaging
3962,Tony Kent IGS,,,310.6,2/3/16,,8 Gages Way,South dennis,MA,2660,America/New_York,41.7037477,-70.1470421,,Tony
3963,Tango Construction,,,54.6,2/3/16,,134 Crawford St.,Fitchburg,MA,1420,America/New_York,42.5634947,-71.7630822,,Tango
3968,Rivermaid Red,,,,1/7/16,,6011 E. Pine St.,Lodi,CA,95240,America/Los_Angeles,38.13497,-121.241025,,Rivermaid
3970,General Woodworking - 299 Western Avenue,,,113.84,2/1/16,,299 Western Ave.,Lowell,MA,1851,America/New_York,42.6402318,-71.322467,,General
3977,College City - Dryer,,,,2/9/16,,7521 Tule Rd.,Arbuckle,CA,95912,America/Los_Angeles,39.0128571,-121.9814267,,College
3978,JLS Mailing Services,,,,2/10/16,,672 Crescent St.,Brockton,MA,2302,America/New_York,42.0819828,-70.9925046,,JLS
3979,College City - Pump,,,,2/11/16,,7521 Tule Rd.,Arbuckle,CA,95912,America/Los_Angeles,39.0128571,-121.9814267,,College
3980,Duval's Pharmacy,,,91.26,2/10/16,,571 Washington St.,Whitman,MA,2382,America/New_York,42.0806968,-70.9371745,,Duval_s
3986,Huntley Residence,,,,2/12/16,,,Barnstable,MA,2601,America/New_York,41.6567207,-70.3003572,,
3988,,,,60.84,2/12/16,,25 Bodwell St.,Avon,MA,2322,America/New_York,42.1255713,-71.0526553,,BC
3991,Berkey Residence,,,4.8,2/16/16,,756 Main St.,Cotuit,MA,2635,America/New_York,41.6211924,-70.4345905,,Berkey
4025,Driscoll Residence,,,,2/22/16,,Evans Rd.,Osterville,MA,2655,America/New_York,41.6320177,-70.3756211,,Driscoll
4027,"SSG Douglas A. King Builders, Inc.",,,,2/23/16,,475 Washington St.,Wrentham,MA,2093,America/New_York,42.0585096,-71.2962369,,SSG
4031,HBS - Travis Hall,,,33.55,2/29/16,,25 Travis St.,Allston,MA,2134,America/New_York,42.3622734,-71.128963,,HBS
4032,Butman Project,,,252.34,2/29/16,,19 Pond St.,Gloucester,MA,1930,America/New_York,42.6292816,-70.6429797,,Butman
4033,Dodge Street Realty,,,,2/29/16,,150 Eastern Ave.,Gloucester,MA,1930,America/New_York,42.6261997,-70.6387579,,Dodge
4034,"Tempus Unlimited, Inc.",,,109.2,2/29/16,,600 Technology Center Dr.,Stoughton,MA,2072,America/New_York,42.1548584,-71.0652837,,Tempus
4035,Robert Fronitero,,,,2/29/16,,11 Pond Rd.,Gloucester,MA,1930,America/New_York,42.6285706,-70.6412442,,
4036,Julian Dixon Library PV,,,,2/29/16,,4975 Overland Ave,Culver city,CA,90230,America/Los_Angeles,34.0076229,-118.3970701,,Julian
4038,A C Bilbrew Library,,,120.78,3/1/16,,150 E. El Segundo Blvd.,Los angeles,CA,90061,America/Los_Angeles,33.9160819,-118.2723047,,A
4040,Community School,,,15.39,3/1/16,,1 Community School Dr.,Sun valley,IDAHO,83353,America/Denver,43.6891033,-114.3530637,,Community
4041,Aster Group - Brooks Street,,,650,3/1/16,,220 Brooks St.,Worcester,MA,1606,America/New_York,42.318228,-71.7999812,,Aster
4042,"Scheidel, Aaron",,,,3/1/16,,1458 W. Catlett Rd.,Pleasant grove,CA,95668,America/Los_Angeles,38.8430959,-121.5665457,,Scheidel_
4047,"C.L. Bailey Company, Main Bldg",,,24.71,3/2/16,,19042 Lawrence 1240,Marionville,MO,65705,America/Chicago,36.9912273,-93.626015,,C_L_
4048,,,,11.48,3/2/16,,1651 S. 22nd Street,Ozark,MO,65721,America/Chicago,37.0049439,-93.18331,,BK_P
4057,Danna Farms - Yuba City,,,,3/8/16,,2765 Young Rd.,Yuba city,CA,95993,America/Los_Angeles,39.16692,-121.668901,,Danna
4059,"Dunbar, Jason",,,11.16,3/9/16,,4100 Pleasant Grove Rd.,Pleasant grove,CA,95668,America/Los_Angeles,38.8643072,-121.4877708,,Dunbar_
4061,Double D Farms - Dunbar,,,90.72,3/9/16,,4100 Pleasant Grove Blvd.,Pleasant grove,CA,95668,America/Los_Angeles,38.7753508,-121.3934744,,Double
4065,Waltham Lumber Building Materials,,,145.7,3/10/16,,71 Massasoit St.,Waltham,MA,2453,America/New_York,42.3770932,-71.2246356,,Waltham
4070,DeRuosi Nut,,,,3/14/16,,25055 E. Arthur Rd.,Escalon,CA,95320,America/Los_Angeles,37.80532,-121.002503,,DeRuosi
4071,Henderson,,,,3/15/16,,2551 Farmlan Rd.,Meridian,CA,95957,America/Los_Angeles,39.17112,-121.907025,,Henderson
4072,"Trinity Private Equity Group, Kimball",,,31.72,2/15/16,,925 S Kimball Ave,Southlake,TX,76092,America/New_York,32.9275121,-97.113689,,Trinity
4074,Heidrick - Huff Pumps,,,,3/16/16,,12972 County Road 102,Woodland,CA,95776,America/Los_Angeles,38.7504677,-121.7328995,,Heidrick
4076,,,,,,,,,,,,,,,Baloian
4077,Double E Farms #12,,,,2/1/16,,,Frenso,CA,93725,America/Los_Angeles,36.6765725,-119.7194377,,Double
4078,Sunworks Nevada,,,,3/17/16,,3555 Airway Dr.,Reno,CA,89511,America/Los_Angeles,39.4695039,-119.7692946,,
4082,"Geisbrecht, Brandon",,,28.35,3/21/16,,2369 Highway 45,Glenn,CA,95943,America/Los_Angeles,39.5683202,-122.011954,,Geisbrecht_
4084,Innovative Produce - Pump,,,,3/22/16,,2165 W. Main St.,Santa maria,CA,93458,America/Los_Angeles,34.9568,-120.491973,,Innovative
4085,Greenwald Residence,,,7.88,3/23/16,,43 Walnut St.,Upton,MA,1568,America/New_York,42.18784,-71.5764058,,
4089,,,,,3/28/16,,7020 Cana Hwy.,Chico,CA,95928,America/Los_Angeles,39.8404202,-122.0162161,,Pine
4092,Innovative Produce - Shop,,,489.6,3/22/16,,1615 W. Main St.,Santa maria,CA,93458,America/Los_Angeles,34.9542791,-120.4704795,,Innovative
4099,Plumb House,,,,3/29/16,,10 Industrial Rd.,Milford,MA,2302,America/New_York,42.1406828,-71.4910171,,Plumb
4100,Cohen / Stapleton Residence,,,,3/28/16,,33 Kingsbury Rd.,Chestnut hill,MA,2467,America/New_York,42.3291848,-71.16987,,
4101,DeValentine Farms,,,430.9,3/30/16,,2890 Bear River Dr.,Rio oso,CA,95674,America/Los_Angeles,38.978552,-121.507386,,DeValentine
4102,Pine Creek - 700,,,,3/30/16,,7020 Cana Hwy.,Chico,CA,95928,America/Los_Angeles,39.8404202,-122.0162161,,Pine
4106,Clark Land Co.,,,99.23,3/30/16,,705 County Road Y,Butte city,CA,95920,America/Los_Angeles,39.3920881,-121.9554736,,Clark
4108,Menezes Bros. Inc.,,,487.94,3/31/16,,100 Canyon Way,Sparks,NV,89434,America/Los_Angeles,39.5103197,-119.6493532,,
4112,21 Stratsol LLC,,,,4/7/16,,21 Strathmore Rd.,Natick,MA,1760,America/New_York,42.2963631,-71.3847787,,21
4115,"Mitsubishi Electric PV System, Cypress",,,,4/1/16,,5900 Katella Ave.,Cypress,CA,90630,America/Los_Angeles,33.8021143,-118.0301359,,
4117,BUCRA - Roof Mount,,,113.4,4/11/16,,1121 Richvale Hwy.,Richvale,CA,95974,America/Los_Angeles,39.491494,-121.740859,,BUCRA
4120,Nelson - Pump,,,432,4/13/16,,2789 Pleasant Grove Rd.,Pleasant grove,CA,95668,America/Los_Angeles,38.9037715,-121.4938838,,Nelson
4121,,,,658.8,,,,,,,,,,,Williams
4123,Enright LLC,,,,4/24/16,,100 Business Park Dr.,Tyngsboro,MA,1879,America/New_York,42.6842225,-71.446541,,Enright
4126,Fedora Farms Inc.,,,,3/12/16,,2551 Farmlan Rd.,Merdian,CA,95957,America/Los_Angeles,39.17112,-121.907025,,Fedora
4132,Bank of Bolivar - Annex,,,19.64,4/21/16,,575 S. Main Ave.,Bolivar,MO,65613,America/Chicago,37.6084709,-93.4090214,,Bank
4133,Bank of Bolivar - Keeling Place,,,,4/21/16,,107 Keeling Pl.,Bolivar,MO,65613,America/Chicago,37.609005,-93.4095648,,Bank
4134,Bank of Bolivar - Fair Grove Branch,,,,4/21/16,,40 N. Main St.,Fair grove,MO,65648,America/Chicago,37.3844101,-93.1508698,,Bank
4135,Bank of Bolivar - West Broadway Branch,,,25.25,4/21/16,,2126 W. Broadway St.,Bolivar,MO,65613,America/Chicago,37.6123154,-93.4346333,,Bank
4136,"O'Reilly Hospitality - Town Place Suites, Joplin",,,,4/21/16,,4026 Arizona Ave.,Joplin,MO,64804,America/Chicago,37.0440255,-94.4813038,,O_Reilly
4137,Macadoodles,,,25.25,4/21/16,,1439 Us-60,Republic,MO,65738,America/Chicago,37.1331848,-93.4576443,,Macadoodles
4138,"O'Reilly Hospitality - Baymont Inn, Branson",,,,4/21/16,,1000 W Main St,Branson,MO,65616,America/Chicago,36.6441644,-93.2321172,,O_Reilly
4139,"Bank of Bolivar, Springfield Ave",,,25.25,4/21/16,,495 S Springfield Ave,Bolivar,MO,65613,America/Chicago,37.6085204,-93.4086353,,Bank
4140,Tulare City School District Solar Project Maple,,,,4/21/16,,1132 N. Seventh Street,San jose,CA,95112,America/Los_Angeles,37.3620568,-121.8998808,,Tulare
4144,Anacortes City Hall,,,21.45,4/22/16,,904 6th St.,Anacortes,WA,98221,America/Los_Angeles,48.5177704,-122.611415,,Anacortes
4148,COE Orchard Equipment,,,,4/25/16,,3453 Riviera Rd.,Live oak,CA,95953,America/Los_Angeles,39.303332,-121.675702,,COE
4150,State Supply Corp.,,,24.26,4/27/16,,195 High St.,Ipswich,MA,1938,America/New_York,42.6941009,-70.8597942,,State
4151,Provincetown Inn,,,101.4,12/1/15,,1 Commercial St.,Provincetown,MA,2657,America/New_York,42.0376425,-70.1957199,,Provincetown
4155,East Coast Welding - Phase 2,,,54.9,4/29/16,,4 Malcolm Hoyt Dr.,Newburyport,MA,1950,America/New_York,42.7989109,-70.8914715,,East
4157,HBS - Shad Hall,,,49.92,5/2/16,,Western Avenue,Cambridge,MA,,America/New_York,42.3636136,-71.1250116,,
4160,Nardone Electric - 160 Olympia Avenue,,,94.64,5/2/16,,160 Olympia Ave.,Woburn,MA,1801,America/New_York,42.4998132,-71.141788,,Nardone
4171,,,,,5/12/16,,1285 Sankey Rd.,Nicolaus,CA,95659,America/Los_Angeles,38.775301,-121.573729,,Willey_
4177,Metrowest Appraisal Services,,,,5/19/16,,10 Cochituate St.,Natick,MA,1760,America/New_York,42.2857399,-71.3501726,,
4185,Bridge Church,,,132.3,5/19/16,,3438 E. Ashlan Ave.,Fresno,CA,93726,America/Los_Angeles,36.7936848,-119.7675071,,Bridge
4187,R67 Ranch,,,,5/19/16,,Road 67,Butte city,CA,95920,America/Los_Angeles,39.4199908,-121.9412915,,R67
4190,NEI Solar,,,24.26,5/23/16,,91 Main St.,Marlborough,MA,1752,America/New_York,42.3473806,-71.5460133,,
4193,Toms River MUA,,,,5/19/16,,340 W. Water St.,Toms river,NJ,8753,America/New_York,39.9546136,-74.2055052,,Toms
4200,,,,75.95,,,,,,,,,,,4
4201,Stockton R-1 School District,,,,5/27/16,,906 South St.,Stockton,MO,65785,America/Chicago,37.6911421,-93.795454,,Stockton
4207,Colusa Rice A - Flat Warehouse #2,,,148.8,6/1/16,,2889 Niagara Ave.,Colusa,CA,95932,America/Los_Angeles,39.1795237,-122.0000097,,Colusa
4208,Colusa Rice B - Dryer #2,,,,6/1/16,,2889 Niagara Ave,Colusa,CA,95932,America/Los_Angeles,39.1795237,-122.0000097,,Colusa
4209,Colusa Rice C - Dryer #1 (NEM),,,200.88,6/1/16,,2889 Niagara Ave.,Colusa,CA,95932,America/Los_Angeles,39.1795237,-122.0000097,,Colusa
4210,"Mid-South Steel Products, Inc.",,,,6/1/16,,2071 Corporate Circle,Cape girardeau,MO,63703,America/Chicago,37.2784199,-89.5448229,,Mid_South
4212,DMG - Rice,,,51.84,6/3/16,,,Glenn,CA,95943,America/Los_Angeles,39.597402,-122.026918,,DMG
4213,PAWS,,,132.3,6/3/16,,1250 Pool Station Rd.,San andreas,CA,96249,America/Los_Angeles,38.1869503,-120.6893224,,PAWS
4217,Interstate Mat Corp. - Cucinotta (Phase 1),,,29.76,6/7/16,,32 Norfolk Ave.,South easton,MA,2375,America/New_York,42.0476409,-71.0760546,,
4220,Superior Surface Solutions,,,25.25,6/6/16,,701 Woodswether St,Kansas city,MO,,America/Chicago,39.108334,-94.592305,,Superior
4221,Cape Ann Forge Trust,,,111.51,3/15/17,,44 Whittemore St.,Gloucester,MA,1930,America/New_York,42.6186614,-70.6769328,,Cape
4228,Van Dyke - Lincoln,,,85.05,6/8/16,,6015 Waltz Rd.,Lincoln,CA,95648,America/Los_Angeles,38.9375447,-121.4004753,,Van
4229,Van Dyke - Pleasant Grove,,,,6/8/16,,4416 Pleasant Grove Rd.,Pleasant grove,CA,95668,America/Los_Angeles,38.856107,-121.483376,,Van
4234,Medfield Wastewater Treatment Plant,,,237.15,6/13/16,,99 Old Bridge St.,Medfield,MA,2052,America/New_York,42.1904491,-71.3330688,,Medfield
4236,J.P. Rivard Trailer Sales Inc.,,,,6/1/16,,1 Ward Way,North chelmsford,MA,1863,America/New_York,42.6332321,-71.409925,,
4237,West Sacramento - Bridge District Water,,,81.1,6/14/16,,809 Ball Park Ave.,West sacramento,CA,95691,America/Los_Angeles,38.5696885,-121.5314992,,West
4244,Bieber Ranch,,,100.44,5/18/16,,654-300 Hwy. 299,Nubieber,CA,96068,America/Los_Angeles,41.1042581,-121.1584701,,Bieber
4250,"Vintage Vettes, LLC",,,25.25,6/17/16,,319 E 10th Ave,Kansas city,MO,64116,America/Chicago,39.1264478,-94.5762261,,Vintage
4251,"O'Reilly Hospitality - Cambria Suites, TX",,,77.47,6/21/16,,7500 Parkwood Blvd.,Plano,TX,75024,America/Chicago,33.0810673,-96.8173061,,O_Reilly
4252,"Route 109 Self Storage, Inc.",,,368.28,6/20/16,,1575 Main St.,Millis,MA,2054,America/New_York,42.1588711,-71.3891195,,Route
4261,,,,,,,,,,,,,,,Augusta
4262,,,,,,,,,,,,,,,Augusta
4263,,,,,,,,,,,,,,,Augusta
4264,,,,,,,,,,,,,,,Augusta
4266,Bill John Residence,,,10.71,6/29/16,,8951 Longview Rd,Kansas city,MO,64134,America/Chicago,38.9153349,-94.4843418,,Bill
4267,HBS - Chao Center,,,65.84,6/29/16,,49 Harvard Way,Cambridge,MA,2163,America/New_York,42.3666422,-71.1199318,,HBS
4268,Jimary Land Trust,,,,7/1/16,,11 Parker St.,Gloucester,MA,1930,America/New_York,42.6156729,-70.6507707,,Jimary
4269,Nor'east Cleaners,,,23.87,6/29/16,,6 Thatcher Rd.,Gloucester,MA,1930,America/New_York,42.6185781,-70.6417863,,
4282,Palmyra LLC / Unique Smile,,,,7/11/16,,21 Main St.,Milford,MA,1757,America/New_York,42.1439898,-71.5142501,,
4283,Scully Packing - Scotts Valley,,,,7/8/16,,2180 Scotts Valley Rd.,Lakeport,CA,95453,America/Los_Angeles,39.063058,-122.945591,,Scully
4284,"Nelson, EC",,,50.4,7/11/16,,4615 Bear River Drive,Rio oso,CA,95674,America/Los_Angeles,38.9786969,-121.448947,,Nelson_
4291,,,,,7/13/16,,120 30th St.,Bakersfield,CA,93301,America/Los_Angeles,35.3875378,-119.0036123,,Kern
4295,Dolan Funeral Home,,,,7/13/16,,106 Middlesex St.,Chelmsford,MA,1863,America/New_York,42.6363804,-71.3738553,,Dolan
4296,SED - Thoreau Farms,,,6.24,7/13/16,,341 Virginia Rd.,Concord,MA,1742,America/New_York,42.468771,-71.3111077,,SED
4297,Pierce City Schools Vocational Bldg,,,25.25,7/22/16,,E Adams St.,Pierce city,MO,65723,America/Chicago,36.947857,-93.9992044,,Pierce
4298,Pierce City Schools Weatherly Field House,,,,6/22/16,,301 N. Myrtle St.,Pierce city,MO,,America/New_York,36.9479402,-94.0003012,,Pierce
4299,Augusta V,,,,7/15/16,,152 Hampton House Rd.,Newton,NJ,7860,America/New_York,41.105102,-74.726633,,Augusta
4301,Hampton Properties,,,9.77,7/15/16,,113 -115 Elm St.,Worcester,MA,1609,America/New_York,42.2662245,-71.8140955,,Hampton
4320,Patel Realty Inc.,,,87.36,9/1/16,,427 Plymouth Ave.,Fall river,MA,2721,America/New_York,41.695476,-71.153415,,Patel
4321,Wye Mills Remote Solar (EPC) VNEM / JB-216484-00,,,,8/1/16,,29500 Queen Anne Hwy.,Queen anne,MD,21657,America/New_York,38.94037,-76.045658,,
4322,Pierce City High School,,,96.14,9/6/16,,300 N. Myrtle,Pierce city,MO,65723,America/Chicago,36.9481353,-93.9992712,,Pierce
4323,Pierce City Middle School,,,65.03,9/6/16,,300 N. Myrtle St.,Pierce city,MO,65723,America/Chicago,36.9481353,-93.9992712,,Pierce
4324,Pierce City Elementary School,,,,9/6/16,,400 Gibbs Ave.,Pierce city,MO,65723,America/Chicago,36.9453751,-93.997435,,Pierce
4326,Brownsville Elementary School,,,130.41,9/7/16,,5870 Rockfish Gap Turnpike,Crozet,VA,22923,America/New_York,38.053005,-78.7042759,,Brownsville
4332,Hall Residence - Kansas City,,,11.22,9/5/16,,815 E. 5th St.,Kansas city,MO,64106,America/Chicago,39.1100058,-94.5737876,,Hall
4334,VADCOD Enterprises LLC,,,64.79,9/5/16,,25 Marion Dr.,Kingston,MA,2364,America/New_York,41.9772178,-70.7181015,,VADCOD
4337,Monticello High School,,,267.03,9/6/16,,1400 Independence Way,Charlottesville,VA,22902,America/New_York,37.9989866,-78.4895468,,Monticello
4341,"15 South St. LLC - American Athletic Shoe Co., Inc.",,,72,9/13/16,,15 South St.,Ware,MA,1082,America/New_York,42.2584842,-72.2406353,,15
4343,Epiphany School,,,24.26,9/14/16,,55 Sharp St.,Dorchester,MA,2124,America/New_York,42.2931647,-71.0660211,,
4344,"Stegall, Earl",,,,9/14/16,,1953 Lurline Ave.,Colusa,CA,95932,America/Los_Angeles,39.2166418,-122.0310478,,Stegall_
4345,Campbell - Abington,,,,9/15/16,,78 Dunbar St.,Abington,MA,2351,America/New_York,42.1052389,-70.9436505,,
4346,Mason Home,,,,9/15/16,,207 Old Concord Rd.,Lincoln,MA,1773,America/New_York,42.4259695,-71.3439559,,
4348,Highland Manor Realty Trust,,,91.08,9/15/16,,493 Lancaster Street,Leominster,MA,1453,America/New_York,42.5116485,-71.7416273,,
4350,,,,102.06,9/15/16,,"WR1 W Side, Wagner Ave.",Arbuckle,CA,95912,America/Los_Angeles,39.0175712,-122.0591991,,T_P
4351,Rolling Hills Church,,,,9/19/16,,800 White Rock Rd.,El dorado hills,CA,95762,America/Los_Angeles,38.6404607,-121.0734033,,Rolling
4353,Durham Unified School District,,,,9/19/16,,9420 Putney Dr.,Durham,CA,95938,America/Los_Angeles,39.6482917,-121.8034733,,Durham
4355,,,,993.51,,,,,,,,,,,Milton
4356,"Heier, Thomas",,,,9/12/16,,5440 E. Butte Rd.,Live oak,CA,95982,America/Los_Angeles,39.211449,-121.716578,,Heier_
4357,,,,,9/18/16,,Friel Rd.,Arbuckle,CA,95912,America/Los_Angeles,38.9912487,-122.0174738,,T_P
4358,,,,,9/19/16,,GB 1 S.E. Access Rd. Greenbay Rd.,Arbuckle,CA,95912,America/Los_Angeles,38.9654931,-122.058037,,T_P
4359,SED - Clark Memorial YMCA,,,279.72,11/1/16,,155 Central St.,Winchendon,MA,1475,America/New_York,42.683433,-72.0460277,,
4360,,,,,9/20/16,,411 Bawter Road,Arbuckle,CA,95912,America/Los_Angeles,38.963991,-122.034765,,A_H
4361,Mumma Brothers A,,,167.4,9/20/16,,7645 Mumma Rd.,Arbuckle,CA,95912,America/Los_Angeles,38.965948,-121.953927,,Mumma
4362,Mumma Brothers B,,,257.04,9/21/16,,583 College City Rd.,Arbuckle,CA,95912,America/Los_Angeles,38.972629,-121.997114,,Mumma
4363,Lylburn Downing Middle School,,,100.48,9/1/16,,302 Diamond St.,Lexington,VA,24450,America/New_York,37.7860069,-79.4339068,,Lylburn
4367,Sill Farms - Pleasant Grove,,,306.18,9/1/16,,5072 Pacific Ave.,Pleasant grove,CA,95668,America/Los_Angeles,38.836588,-121.52535,,Sill
4368,SED Clark Memorial YMCA - Fieldhouse,,,204.12,9/22/16,,155 Central St.,Winchendon,MA,1475,America/New_York,42.683433,-72.0460277,,
4374,"Sutton, Mark",,,5.15,9/28/16,,205 Elm St.,Maxwell,CA,95955,America/Los_Angeles,39.278363,-122.1972653,,Sutton_
4378,Columbia Elevator,,,400.2,9/29/16,,380 Horace St,Bridgeport,CT,6610,America/New_York,41.2032126,-73.1761884,,Columbia
4379,Shiloh Baptist Church,,,,8/31/16,,477 Broad St.,Bridgeport,CT,6604,America/New_York,41.1699117,-73.188131,,Shiloh
4380,"WJL Acquisitions, LLC",,,,10/1/16,,50 Millbrook St.,Worcester,MA,1606,America/New_York,42.2873779,-71.8024322,,
4381,"Janis Research Company, LLC - Building 2",,,151.2,10/1/16,,225 Wildwood Ave.,Woburn,MA,1801,America/New_York,42.4920319,-71.1343611,,Janis
4382,2nd Chance Solar,,,56.7,10/1/16,,881 Marlboro St.,Keene,NH,3431,America/New_York,42.9160755,-72.2287176,,2nd
4388,Littleworth Road Solar,,,334.53,7/1/16,,66 Littleworth Rd.,Dover,NH,3820,America/New_York,43.1875306,-70.9123904,,Littleworth
4389,75 DeMaio Drive,,,87.42,9/6/16,,75 DeMaio Dr.,Milford,CT,6460,America/New_York,41.206362,-73.074778,,75
4398,Ridgetop Warehouse Company,,,,10/13/16,,5520 Loretz Rd.,Willows,CA,95988,America/Los_Angeles,39.3551658,-122.1902507,,Ridgetop
4402,Beta LLC,,,115.32,10/1/16,,218 Willard St.,Leominster,MA,1453,America/New_York,42.4949723,-71.7363444,,Beta
4407,Corder Farms - Shop,,,,10/19/16,,540-225 Little Valley Rd.,Mcarthur,CA,96056,America/Los_Angeles,40.958492,-121.2663317,,Corder
4408,Bricktree LLC - Cenedella Masonry Inc.,,,24.26,10/20/16,,35 Depot St.,Milford,MA,1757,America/New_York,42.1375572,-71.514853,,
4411,Corder Farms - George,,,8.51,10/20/16,,540-855 Little Valley Road,Mcarthur,CA,95056,America/Los_Angeles,41.0145742,-121.3081078,,Corder
4412,Corder Farms - Pittville B,,,,10/20/16,,541-860 Pittville Rd.,Mcarthur,CA,96056,America/Los_Angeles,41.014282,-121.316922,,Corder
4413,Corder Farms - Tarron,,,8.32,10/20/16,,540-255 Little Valley Road,Mcarthur,CA,96056,America/Los_Angeles,41.0083004,-121.3144485,,Corder
4414,Corder Farms - Travis,,,12.6,10/20/16,,542-565 Little Valley Rd.,Mcarthur,CA,96056,America/Los_Angeles,41.020693,-121.307355,,Corder
4416,Hoboken LLC,,,23.94,10/20/16,,2 Beach St.,Milford,MA,1757,America/New_York,42.142831,-71.5125575,,
4427,Two Squares LLC,,,,10/26/16,,26 Farwell St.,Newton,MA,2460,America/New_York,42.3659146,-71.2171638,,
4429,Hank Ashforth - 22 Spectacle Lane,,,,10/1/16,,22 Spectacle Ln.,Ridgefield,CT,6877,America/New_York,41.250193,-73.480582,,Hank
4430,,,,,,,,,,,,,,,Lodi
4432,McGinnis Farms,,,,10/27/16,,2583 County Road P,Artois,CA,95913,America/Los_Angeles,39.6634258,-122.1405982,,McGinnis
4433,West Sacramento - City Hall,,,,10/31/16,,1110 W. Capital Ave.,West sacramento,CA,95691,America/Los_Angeles,38.5819286,-121.523396,,West
4434,SED Clark Memorial YMCA - Main Building,,,74.4,11/1/16,,155 Central St.,Winchendon,MA,1475,America/New_York,42.683433,-72.0460277,,
4438,Hadley Date Gardens,,,239.04,11/1/16,,83555 Airport Blvd.,Thermal,CA,92274,America/Los_Angeles,33.6407028,-116.2061746,,Hadley
4439,Corder Farms - Bruce,,,197.06,11/1/16,,44800-45184 Dee Knoch Rd,Fall river mills,CA,96026,America/Los_Angeles,41.0330997,-121.3831904,,Corder
4440,Corder Farms - Pittville A East,,,,11/1/16,,542-690 Little Valley Rd.,Mcarthur,CA,96056,America/Los_Angeles,41.0243449,-121.319385,,Corder
4441,Corder Farms - Redroc,,,,10/23/16,,543-610 Little Valley Rd.,Mcarthur,CA,96056,America/Los_Angeles,41.0292674,-121.3229853,,Corder
4442,277-279 Blake Street - First Floor,,,9.92,11/4/16,,"277-279 Blake St., 1st Fl.",New haven,CT,6515,America/New_York,41.3270552,-72.9528241,,277_279
4447,Corder Farms - Crum,,,,10/21/16,,45885 Dee Knoch Rd.,Fall river mills,CA,96056,America/Los_Angeles,41.028979,-121.3422987,,Corder
4455,Faith Lutheran Church,,,17.55,10/21/16,,667 E. 1st Ave.,Chico,CA,95926,America/Los_Angeles,39.7415492,-121.8366253,,Faith
4471,SED - Community Rowing Inc.,,,,11/1/16,,20 Nonantum Rd.,Brighton,MA,2135,America/New_York,42.3587087,-71.1656926,,
4472,Shred King,,,212.04,11/16/16,,12 Mear Rd.,Holbrook,MA,2343,America/New_York,42.1523228,-71.0221044,,
4475,Skin Perfect Medical Aesthetics,,,45.36,10/7/16,,10380 Foothills Blvd.,Rancho cucamonga,CA,91730,America/Los_Angeles,34.1069178,-117.5782455,,Skin
4478,"McArthur, George",,,218.7,11/15/16,,41581 McArthur Rd.,Mcarthur,CA,96056,America/Los_Angeles,41.0553759,-121.4546471,,McArthur_
4482,5H Farms,,,,11/29/16,,5601 S. Hwy 59,Merced,CA,95340,America/Los_Angeles,37.205892,-120.497698,,5H
4485,10 SPNSOL LLC (10 Speen),,,48.36,11/29/16,,10 Speen St.,Framingham,MA,1701,America/New_York,42.3129304,-71.3908336,,
4486,"Kidd, Robert",,,,11/29/16,,8999 Holland Ave.,Durham,CA,95938,America/Los_Angeles,39.632015,-121.805948,,Kidd_
4488,,,,50.4,11/21/16,,22075 County Road 99,Woodland,CA,95695,America/Los_Angeles,38.613981,-121.780466,,Meek
4489,NorCal Nut,,,,11/1/16,,1741 Evans Road,Williams,CA,95987,America/Los_Angeles,39.0767663,-122.1840112,,NorCal
4495,SED - Carleton-Willard Village,,,,11/30/16,,100 Old Billerica Rd.,Bedford,MA,1730,America/New_York,42.5012112,-71.2589917,,
4500,,,,,12/1/16,,855 S. Dubuque St.,Iowa city,IA,52240,America/New_York,41.6513825,-91.5339515,,Johnson
